,name,category,rating,review,link,addr,hour,tel,univ,lat,lng
0,나주곰탕 서울대점,한정식,3.8,15,https://place.map.kakao.com/19781967,서울 관악구 관악로 167,,02-886-6266,서울대학교,37.48027620000001,126.9522232
1,파스쿠찌 서울대점,커피전문점,3.2,9,https://place.map.kakao.com/17768857,서울 관악구 관악로 1 사범대간이식당 111동,,02-882-8497,서울대학교,37.4601267,126.9548356
2,서울대학교 자하연식당,구내식당,3.5,2,https://place.map.kakao.com/16045596,서울 관악구 관악로 1,,02-880-7889,서울대학교,37.4814353,126.9549042
3,BBQ 서울대글로벌공학관점,치킨,2.8,9,https://place.map.kakao.com/22119065,서울 관악구 관악로 1 글로벌공학교육센터,,02-878-6690,서울대학교,37.4548035,126.9506582
4,투썸플레이스 서울대점,커피전문점,4.0,3,https://place.map.kakao.com/1501452389,서울 관악구 관악로 1 자연과학대학 500동,,02-884-2385,서울대학교,37.4565095,126.9500385
5,두레미담 서울대1호점,한식,3.5,7,https://place.map.kakao.com/27494749,서울 관악구 신림동 산 56-1 서울대학교 농생대옆 75-1동 5층,,02-880-9358,서울대학교,37.4565095,126.9500385
6,서울대학교 공대간이식당,구내식당,4.3,4,https://place.map.kakao.com/12544250,서울 관악구 신림동 산 56-1,,02-889-8956,서울대학교,37.4602626,126.9535979
7,락구정,한정식,2.0,2,https://place.map.kakao.com/23345881,서울 관악구 관악로 1 서울대학교 38동 글로벌공학교육센터 지하 1층,,02-875-8840,서울대학교,37.4548035,126.9506582
8,파란코끼리,한식,2.3,14,https://place.map.kakao.com/1841041243,서울 관악구 신림동 산 56-1 서울대학교 관악캠퍼스 신양학술정보관3 16-1동 1층,,02-878-8020,서울대학교,37.4602826,126.9535949
9,롯데리아 서울대점,패스트푸드,1.1,1,https://place.map.kakao.com/26477415,서울 관악구 관악로 1 2층,,02-877-8444,서울대학교,37.4602626,126.9535979
10,라운지오 서울대점,양식,2.6,6,https://place.map.kakao.com/21539038,서울 관악구 관악로 1,,02-882-7005,서울대학교,37.4814353,126.9549042
11,파스쿠찌 서울대관정도서관점,커피전문점,4.0,0,https://place.map.kakao.com/2058698940,"서울 관악구 관악로 1 2,3층",,02-875-8497,서울대학교,37.4602626,126.9535979
12,서울대학교 제3학생식당,구내식당,4.5,1,https://place.map.kakao.com/13096130,서울 관악구 신림동 194 서울대학교 75-1동,,,서울대학교,37.4565095,126.9500385
13,더랩카페 서울대점,카페,3.0,1,https://place.map.kakao.com/1591298830,서울 관악구 신림동 산 56-1 해동학술관 내,,02-888-8288,서울대학교,37.4602826,126.9535949
14,더랩 서울대학교 사범대점,카페,3.8,2,https://place.map.kakao.com/403434650,서울 관악구 관악로 1 기초사범교육협력센터 1층,,02-878-8880,서울대학교,37.480912,126.953218
15,10인치샌드위치&커피 서울대본점,샌드위치,4.0,11,https://place.map.kakao.com/606028632,서울 관악구 관악로 1 서울대학교 기숙사 900동,,02-881-9211,서울대학교,37.46303,126.958448
16,포포인 서울대학교점,동남아음식,3.1,9,https://place.map.kakao.com/990381991,서울 관악구 관악로 1 서울대학교 대림국제관 지하 1층,,02-878-5060,서울대학교,37.4565095,126.9500385
17,더로스터59,커피전문점,4.5,5,https://place.map.kakao.com/730617380,서울 관악구 관악로 1 서울대학교 59-1동 2층,,,서울대학교,37.4602626,126.9535979
18,서울대이야기카페,카페,4.2,9,https://place.map.kakao.com/15821571,서울 관악구 관악로 1 법학도서관 1층,,02-887-2060,서울대학교,37.4624165,126.9517735
19,할리스 서울대예술문화점,커피전문점,3.5,4,https://place.map.kakao.com/26779722,서울 관악구 관악로 1 예술계복합연구동 1층,,02-877-7186,서울대학교,37.480912,126.953218
20,나인온스버거 서울대점,햄버거,3.6,11,https://place.map.kakao.com/968745965,"서울 관악구 신림동 산 56-1 유회진학술정보관 300동 지하1층 B101, B102호",,02-878-9028,서울대학교,37.4602826,126.9535949
21,봉구스밥버거 서울대공대점,주먹밥,4.6,0,https://place.map.kakao.com/1374301539,서울 관악구 관악로 1 신양학술정보관,,02-873-5970,서울대학교,37.4602826,126.9535949
22,퀴즈노스서브 서울대글로벌생활관점,샌드위치,4.0,2,https://place.map.kakao.com/617098468,서울 관악구 봉천동 산 4-2 916동 지하1층 B108호,,02-872-9329,서울대학교,37.4618701,126.9612597
23,카페그랑,카페,1.7,0,https://place.map.kakao.com/13274535,서울 관악구 관악로 1 서울대학교 신축기숙사 1층,,02-881-9204,서울대학교,37.4565095,126.9500385
24,텐카이핀 서울대지점,퓨전일식,2.7,4,https://place.map.kakao.com/27441754,서울 관악구 관악로 1 대림국제관 137-2동 지하1층,,02-875-2203,서울대학교,37.4721238,126.9349225
25,동원관 서울대학교점,일식,3.5,0,https://place.map.kakao.com/13143032,서울 관악구 관악로 1,,02-880-8699,서울대학교,37.4814353,126.9549042
26,블루포트 서울대점,카페,3.8,0,https://place.map.kakao.com/1181902948,서울 관악구 봉천동 산 4-2 916동 지하1층,,02-465-1121,서울대학교,37.4618701,126.9612597
27,파리바게뜨 서울대학교점,"제과,베이커리",3.5,0,https://place.map.kakao.com/26512727,서울 관악구 관악로 1 관정도서관 2층,,02-875-8292,서울대학교,37.4565095,126.9500385
28,느티나무 137동점,카페,3.6,1,https://place.map.kakao.com/1143385430,서울 관악구 관악로 1 137-1동 1층,,,서울대학교,37.4565095,126.9500385
29,다향만당,전통찻집,5.0,0,https://place.map.kakao.com/2040882403,서울 관악구 관악로 1 두레학생문예관 2층,,02-880-6244,서울대학교,37.480912,126.953218
30,느티나무 자하연점,카페,4.7,0,https://place.map.kakao.com/125446371,서울 관악구 관악로 1 109동,,,서울대학교,37.4602626,126.9535979
31,아워홈식당,한식,1.5,0,https://place.map.kakao.com/1771034141,서울 관악구 관악로 1 901동 1층,,,서울대학교,37.4602626,126.9535979
32,커피앤티,카페,3.0,1,https://place.map.kakao.com/1280434630,서울 관악구 관악로 1,,,서울대학교,37.4814353,126.9549042
33,카페드림 서울대학교국제대학원140동점,커피전문점,3.0,0,https://place.map.kakao.com/491950289,서울 관악구 관악로 1,,02-883-5800,서울대학교,37.4814353,126.9549042
34,서울대학교 문화인큐베이터,카페,5.0,0,https://place.map.kakao.com/13582489,서울 관악구 관악로 1 서울대학교 63동 437호,,,서울대학교,37.4565095,126.9500385
35,제이김밥,분식,4.0,0,https://place.map.kakao.com/463578269,서울 관악구 신림동 산 56-1,,,서울대학교,37.4602626,126.9535979
36,벨에삐,카페,4.0,0,https://place.map.kakao.com/1945504527,서울 관악구 관악로 1 농업생명과학대학 200동 1층,,02-882-4578,서울대학교,37.4576254,126.9486386
37,범산목장 서울대2호점,아이스크림,3.0,0,https://place.map.kakao.com/1198471387,서울 관악구 신림동 산 56-1 공간간이식당 30-2,,,서울대학교,37.4602626,126.9535979
38,소담마루,구내식당,1.0,1,https://place.map.kakao.com/21330236,서울 관악구 관악로 1 서울대학교 113동 동원생활관 3층,,,서울대학교,37.46303,126.958448
39,올리브그린 서울대점,분식,3.5,0,https://place.map.kakao.com/208671287,서울 관악구 관악로 1,,02-881-9207,서울대학교,37.4814353,126.9549042
40,강릉형제장칼국수 서울점,국수,3.9,51,https://place.map.kakao.com/27543933,서울 관악구 대학5길 10-7 1층,,02-871-8852,서울대학교,37.4689661,126.9383802
41,느티나무 도서관점,카페,4.5,0,https://place.map.kakao.com/130037574,서울 관악구 관악로 1 62동,,,서울대학교,37.4602626,126.9535979
42,오삼숙이 본점,"육류,고기",4.3,85,https://place.map.kakao.com/2144193869,서울 관악구 대학길 57 1층,,02-882-5332,서울대학교,37.4681192,126.9377817
43,중화각,중화요리,4.7,3,https://place.map.kakao.com/16092192,서울 관악구 낙성대로15길 66 1층,,02-888-4363,서울대학교,37.4679288,126.9623889
44,샤반,한식,2.7,0,https://place.map.kakao.com/27259501,서울 관악구 관악로 1 자연과학대 1층,,,서울대학교,37.480912,126.953218
45,나인온스버거 서울대500동점,햄버거,3.6,0,https://place.map.kakao.com/320971708,서울 관악구 관악로 1 서울대학교 500동 1층 A-105호,,,서울대학교,37.4565095,126.9500385
46,얼레꼴레 서울대점,분식,2.5,1,https://place.map.kakao.com/822687721,서울 관악구 신림동 산 56-1 서울대학교 유회진학술정보관 300동 2층,,,서울대학교,37.4602826,126.9535949
47,fluid 카페,카페,4.0,0,https://place.map.kakao.com/124993267,서울 관악구 관악로 1 63동,,,서울대학교,37.4798366,126.9520327
48,느티나무 음대점,카페,5.0,0,https://place.map.kakao.com/131194145,서울 관악구 관악로 1 54동,,,서울대학교,37.4788977,126.9526427
49,백년초왕갈비탕 서울대점,갈비,3.5,25,https://place.map.kakao.com/14596484,서울 관악구 신림로7길 10,,02-882-5858,서울대학교,37.470102,126.9412503
50,쟝블랑제리,"제과,베이커리",3.8,641,https://place.map.kakao.com/16990385,서울 관악구 낙성대역길 8,,02-889-5170,서울대학교,37.4771481,126.9619528
51,퀴즈노스서브 서울대제1공학관점,샌드위치,3.5,0,https://place.map.kakao.com/8111795,서울 관악구 관악로 1 서울대학교 공과대학 제1공학관 1층,,02-871-9329,서울대학교,37.4562145,126.9508086
52,산마루,갈비,3.0,3,https://place.map.kakao.com/13291751,서울 관악구 낙성대로 98,,02-886-3370,서울대학교,37.4698568,126.9572456
53,글로벌하우스,"호프,요리주점",3.0,0,https://place.map.kakao.com/12275509,서울 관악구 봉천동 산 4-2,,02-881-9084,서울대학교,37.4618701,126.9612597
54,카페드림 서울대학교300동점,커피전문점,4.0,0,https://place.map.kakao.com/1079875184,서울 관악구 신림동 산 56-1 유회진학술정보관 300동 2층,,02-2282-6451,서울대학교,37.4602826,126.9535949
55,동학주점,"호프,요리주점",4.6,25,https://place.map.kakao.com/16044048,서울 관악구 대학5길 29 1층,,02-872-6107,서울대학교,37.4693175,126.9394831
56,가네샤,인도음식,4.5,99,https://place.map.kakao.com/26106341,서울 관악구 대학길 46,영업시간 매일 11:00 ~ 22:00,02-6123-9799,서울대학교,37.468664,126.9375457
57,오월의김밥,분식,4.3,285,https://place.map.kakao.com/367274233,서울 관악구 봉천로 605,영업시간 화~금 07:00 ~ 19:00,02-876-7792,서울대학교,37.4760503,126.9645943
58,통영장어잡는날,장어,4.4,10,https://place.map.kakao.com/16420885,서울 관악구 대학길 103,영업시간 화~일 17:00 ~ 24:00,02-887-8486,서울대학교,37.4660514,126.9376979
59,니와,"초밥,롤",2.2,30,https://place.map.kakao.com/16332662,서울 관악구 호암로22길 69,월~토 17:30 ~ 01:30,02-888-7378,서울대학교,37.4686199,126.9366476
60,텐동요츠야,일식,3.8,633,https://place.map.kakao.com/1226967920,서울 관악구 관악로14길 35 1층,영업시간 화~일 12:00 ~ 21:00 · 브레이크타임 화~일 14:30 ~ 17:00,,서울대학교,37.4789211,126.954465
61,이가소머리국밥,국밥,3.7,12,https://place.map.kakao.com/16735558,서울 관악구 신림로7나길 32,,02-888-1530,서울대학교,37.4697178,126.9398098
62,산야로콩나물국밥,국밥,4.2,21,https://place.map.kakao.com/16296276,서울 관악구 관악로 111,영업시간 매일 06:30 ~ 22:00,02-889-3390,서울대학교,37.4749645,126.9524206
63,발루토,카페,3.5,81,https://place.map.kakao.com/1256440499,서울 관악구 신림로23길 28 1층,영업시간 매일 09:00 ~ 23:00,02-875-1155,서울대학교,37.4697203,126.9346717
64,더까페,카페,4.0,0,https://place.map.kakao.com/21409537,서울 관악구 봉천동 239-1,,02-880-0302,서울대학교,37.4677522,126.9589084
65,기절초풍왕순대,순대,3.6,114,https://place.map.kakao.com/16586486,서울 관악구 봉천로62길 2,영업시간 매일 07:00 ~ 22:00,02-872-8805,서울대학교,37.4780711,126.9584068
66,마이무,양식,4.0,149,https://place.map.kakao.com/1234594694,서울 관악구 낙성대로 22-10 1층,영업시간 매일 11:30 ~ 22:00 · 브레이크타임 월~금 14:30 ~ 17:00,02-882-8933,서울대학교,37.4769663,126.9586042
67,킷사서울,일식,2.9,528,https://place.map.kakao.com/1153635092,서울 관악구 남부순환로226길 31 2층,,02-878-7444,서울대학교,37.4791861,126.9537648
68,고기굽는사람들,"육류,고기",4.5,106,https://place.map.kakao.com/563659414,서울 관악구 관악로14길 70 1층,,0507-1357-6884,서울대학교,37.4782015,126.956336
69,우리가참순대,순대,4.2,140,https://place.map.kakao.com/22045853,서울 관악구 관악로 148 지하1층,,02-883-1063,서울대학교,37.4784177,126.9525726
70,도적숯불구이,"육류,고기",1.9,5,https://place.map.kakao.com/27343732,서울 관악구 관악로 110-1,,02-882-8573,서울대학교,37.4750936,126.9531594
71,카페녹다,카페,4.2,20,https://place.map.kakao.com/179734609,서울 관악구 신림로15길 31,,02-6082-8252,서울대학교,37.4687701,126.9371225
72,시골집,쌈밥,3.4,77,https://place.map.kakao.com/9186293,서울 관악구 낙성대로 22-7,,02-874-7333,서울대학교,37.47683079999999,126.9584614
73,제주상회,국수,4.1,82,https://place.map.kakao.com/27436494,서울 관악구 관악로12길 108 지하 1층,,02-883-7083,서울대학교,37.4771776,126.9583514
74,안녕베트남,동남아음식,3.1,367,https://place.map.kakao.com/41742921,서울 관악구 관악로14길 70 지하1층,,02-877-3875,서울대학교,37.478539,126.9556069
75,나인온스버거,햄버거,3.8,83,https://place.map.kakao.com/19807973,서울 관악구 관악로12길 108 1층,,02-878-9020,서울대학교,37.4771776,126.9583514
76,배떡 신림점,떡볶이,2.4,1,https://place.map.kakao.com/1972684871,서울 관악구 신림로11길 41 1층,,,서울대학교,37.4685986,126.9388885
77,씬챠호,베트남음식,4.5,14,https://place.map.kakao.com/658574738,서울 관악구 대학길 52 지하 1층,,02-874-8745,서울대학교,37.4682459,126.9375403
78,하륜일만족발 신림점,"족발,보쌈",2.6,29,https://place.map.kakao.com/1559664652,서울 관악구 호암로22길 82 해피원룸 1층,,02-876-8255,서울대학교,37.4683904,126.9372827
79,모힝,이탈리안,4.0,176,https://place.map.kakao.com/18508537,서울 관악구 남부순환로226길 36 2층,,02-873-5164,서울대학교,37.4790279,126.9535036
80,미추원주추어탕 서울본점,추어,3.1,13,https://place.map.kakao.com/15626827,서울 관악구 관악로 108,,02-887-6226,서울대학교,37.4747908,126.9531579
81,안녕부산,한식,2.5,160,https://place.map.kakao.com/1306419391,서울 관악구 관악로14길 45,,02-6407-0718,서울대학교,37.4787408,126.9550633
82,정원쌈밥보리밥,쌈밥,4.2,28,https://place.map.kakao.com/16705262,서울 관악구 신림로18가길 23,,02-887-6454,서울대학교,37.4719191,126.9350011
83,모힝 낙성대점,양식,4.4,91,https://place.map.kakao.com/27226002,서울 관악구 봉천로62길 7 2층,,02-878-3233,서울대학교,37.4775839,126.9589518
84,우디가스트로,양식,3.5,47,https://place.map.kakao.com/123009033,서울 관악구 관악로 116,,02-887-8908,서울대학교,37.4755658,126.9530714
85,쥬벤쿠바,양식,4.1,195,https://place.map.kakao.com/192812269,서울 관악구 관악로14나길 10 1층,,02-6032-0278,서울대학교,37.4776206,126.957287
86,하이보 서울대입구점,중화요리,3.6,27,https://place.map.kakao.com/1192617968,서울 관악구 관악로 134 2층,,02-882-8813,서울대학교,37.4772069,126.9526957
87,교촌치킨 신림3호점,치킨,2.1,3,https://place.map.kakao.com/10146051,서울 관악구 신림로11길 13,,02-877-3688,서울대학교,37.4698393,126.9389874
88,스시와,"초밥,롤",4.0,58,https://place.map.kakao.com/369747426,서울 관악구 남부순환로246길 43,,02-882-1686,서울대학교,37.4745892,126.9639169
89,황홀경,디저트카페,3.5,281,https://place.map.kakao.com/960623897,서울 관악구 관악로14길 37 지하1층,,02-6449-7362,서울대학교,37.47890599999999,126.9545918
90,박막례청진동해장국,해장국,4.3,28,https://place.map.kakao.com/20747852,서울 관악구 관악로 105,,02-875-9882,서울대학교,37.474592,126.9525886
91,라미스콘,"제과,베이커리",2.9,206,https://place.map.kakao.com/776342222,"서울 관악구 관악로14길 88 1~3층,옥상층",,070-8855-3456,서울대학교,37.4779406,126.9572079
92,성빈각,중화요리,4.0,0,https://place.map.kakao.com/16934865,서울 관악구 신림로3가길 10,,02-887-4377,서울대학교,37.4687321,126.9441331
93,파머스빈 서울대점,커피전문점,4.5,2,https://place.map.kakao.com/1616448736,서울 관악구 신림로 85 1층,매일 09:00 ~ 02:00,070-4235-6232,서울대학교,37.4702891,126.9399069
94,카페폴,카페,4.4,72,https://place.map.kakao.com/802510891,서울 관악구 남부순환로234길 43 1층,영업시간 매일 10:00 ~ 22:00,070-8100-9091,서울대학교,37.4775138,126.9567221
95,스태미나식당,"육류,고기",3.5,14,https://place.map.kakao.com/1290340363,서울 관악구 호암로24길 65 2층,월~토 17:00 ~ 00:15,070-8108-8104,서울대학교,37.4693855,126.9368187
96,온고지신,카페,3.4,225,https://place.map.kakao.com/71268832,서울 관악구 관악로14길 101,영업시간 매일 12:00 ~ 22:00,,서울대학교,37.4778732,126.9579426
97,티라노커피,커피전문점,4.6,106,https://place.map.kakao.com/22000100,서울 관악구 남부순환로230길 39,영업시간 매일 11:00 ~ 23:00,,서울대학교,37.4782967,126.9555862
98,동경산책 서울대입구점,일식,3.4,104,https://place.map.kakao.com/1884948997,서울 관악구 관악로14길 30 2층,영업시간 매일 11:30 ~ 22:00 · 브레이크타임 매일 15:00 ~ 17:00,02-875-0666,서울대학교,37.4788509,126.9541697
99,쿠버타코 서울대직영점,"멕시칸,브라질",4.1,3,https://place.map.kakao.com/450961857,"서울 관악구 신림로 91 5,6호",,02-889-2701,서울대학교,37.47029879999999,126.9390781
100,가비사랑방,카페,4.0,1,https://place.map.kakao.com/554391302,"서울 관악구 대학길 106 1,2층",매일 11:00 ~ 01:00,02-876-6565,서울대학교,37.4653866,126.9375129
101,소디스커피,카페,4.3,206,https://place.map.kakao.com/482399452,서울 관악구 남부순환로230길 45 1층 101호,영업시간 월~토 11:00 ~ 23:00,02-6084-0061,서울대학교,37.478004,126.9555077
102,서가숯불닭갈비막국수,닭요리,2.5,7,https://place.map.kakao.com/27342181,서울 관악구 신림로11길 31 2층,매일 12:00 ~ 02:00,02-878-0255,서울대학교,37.4690015,126.9389008
103,백산식당,삼겹살,4.7,95,https://place.map.kakao.com/1507921206,서울 관악구 관악로14길 60,영업시간 월~금 17:00 ~ 24:00,02-877-8271,서울대학교,37.4784109,126.9557723
104,온돌 샤로수길점,한식,4.1,74,https://place.map.kakao.com/895388898,서울 관악구 봉천로 534 1층,영업시간 매일 11:30 ~ 22:30 · 브레이크타임2 월~금 15:00 ~ 17:00,02-873-8712,서울대학교,37.4786512,126.956964
105,돈파스팔레 낙성대본점,이탈리안,2.5,25,https://place.map.kakao.com/15637180,서울 관악구 봉천로 568-1 2층,영업시간 매일 11:30 ~ 23:30 · 브레이크타임 매일 15:00 ~ 17:00,02-886-3362,서울대학교,37.4772964,126.9605827
106,장우동 서울대점,"돈까스,우동",2.4,10,https://place.map.kakao.com/17046807,서울 관악구 호암로24길 57,"월,화,수,목,금,일 08:00 ~ 01:00",02-878-5583,서울대학교,37.4694347,126.9363817
107,삼백돈돈가츠,"돈까스,우동",2.6,135,https://place.map.kakao.com/2092574237,서울 관악구 남부순환로230길 48 1층,영업시간 매일 11:30 ~ 21:00 · 브레이크타임 월~금 15:00 ~ 17:00,02-872-6443,서울대학교,37.4779581,126.9552031
108,가츠가게,"돈까스,우동",4.8,89,https://place.map.kakao.com/1420174243,서울 관악구 낙성대로4가길 12 1층,영업시간 매일 11:30 ~ 21:00 · 브레이크타임 매일 15:00 ~ 17:30,02-6953-7007,서울대학교,37.4766223,126.9585242
109,삐에스몽테과자점 녹두점,"제과,베이커리",3.1,3,https://place.map.kakao.com/1481235054,서울 관악구 신림로 91 1층,,,서울대학교,37.47029879999999,126.9390781
110,다케돈까스,"돈까스,우동",4.1,4,https://place.map.kakao.com/11386690,서울 관악구 대학길 71,"영업시간 월,화,수,목,금,일 11:30 ~ 21:00",02-871-9596,서울대학교,37.4674747,126.9377592
111,퍼블리코타코,"멕시칸,브라질",4.0,77,https://place.map.kakao.com/569989022,서울 관악구 관악로14길 106 1층,영업시간 화~일 11:30 ~ 23:00,02-871-6282,서울대학교,37.4776242,126.9582039
112,지구당,일식집,3.0,74,https://place.map.kakao.com/11495399,서울 관악구 관악로12길 5,영업시간 월~토 11:30 ~ 21:00 · 브레이크타임 월~토 14:30 ~ 17:00,02-888-9929,서울대학교,37.4782112,126.9527541
113,어느멋진날,커피전문점,4.6,0,https://place.map.kakao.com/1559427840,서울 관악구 신림로11길 67 1층,,070-4334-7094,서울대학교,37.4674303,126.9388258
114,더은교,디저트카페,4.1,37,https://place.map.kakao.com/17997832,서울 관악구 봉천로 600-1,영업시간 월~토 11:00 ~ 20:00,02-877-1103,서울대학교,37.4760044,126.9637753
115,정통집 샤로수길점,"육류,고기",4.4,98,https://place.map.kakao.com/398840887,서울 관악구 관악로14길 65 1층,,02-877-9006,서울대학교,37.4784736,126.95614
116,풍년집정육식당 신림점,"육류,고기",3.3,13,https://place.map.kakao.com/23104704,서울 관악구 신림로 94,매일 11:00 ~ 01:30,02-871-9796,서울대학교,37.4709376,126.9390837
117,황해도빈대떡,한식,4.6,7,https://place.map.kakao.com/16044719,서울 관악구 신림로11길 20,,02-872-8587,서울대학교,37.4695539,126.9387099
118,가마솥한방삼계탕육개장전문,삼계탕,3.2,19,https://place.map.kakao.com/20743400,서울 관악구 대학6길 22,영업시간 매일 11:00 ~ 22:30,02-878-7455,서울대학교,37.4691053,126.9365152
119,시트론오피스,카페,3.9,224,https://place.map.kakao.com/1850085124,서울 관악구 남부순환로234길 18 2층,영업시간 매일 12:00 ~ 23:00,02-878-0407,서울대학교,37.4785401,126.9569316
120,메이드바이아린,"제과,베이커리",4.1,64,https://place.map.kakao.com/493709215,서울 관악구 남부순환로230길 40-4 1층,"영업시간 월,수,목,금,토,일 12:30 ~ 20:00",02-883-0077,서울대학교,37.4784238,126.9552927
121,맘스터치 관악대학동점,패스트푸드,3.4,8,https://place.map.kakao.com/1181024917,서울 관악구 신림로 89 1층,,02-6465-5362,서울대학교,37.4702513,126.9395117
122,우리동네고기집,"육류,고기",3.8,97,https://place.map.kakao.com/15819369,서울 관악구 인헌6길 24,,02-871-9938,서울대학교,37.4740784,126.9654694
123,신기루황소곱창구이,"곱창,막창",2.9,82,https://place.map.kakao.com/392727294,서울 관악구 관악로13길 25,,02-887-5000,서울대학교,37.4791966,126.9506803
124,하노이별 녹두거리시작점,동남아음식,3.5,4,https://place.map.kakao.com/16707978,서울 관악구 신림로11길 18,,02-873-7470,서울대학교,37.4697172,126.9387359
125,피자네버슬립스 샤로수길점,피자,4.0,178,https://place.map.kakao.com/1394857156,서울 관악구 봉천로 534 2층,,,서울대학교,37.4786512,126.956964
126,신림왕꼬치,양꼬치,4.4,2,https://place.map.kakao.com/610758652,서울 관악구 대학길 61 지하1층,,02-878-2588,서울대학교,37.4678477,126.9377517
127,코코미,"초밥,롤",3.0,159,https://place.map.kakao.com/17024474,서울 관악구 관악로 146,,02-872-2233,서울대학교,37.478214,126.9525562
128,박명주브라더,닭요리,3.3,160,https://place.map.kakao.com/544275706,서울 관악구 관악로14길 89,,02-882-9411,서울대학교,37.4781271,126.9574009
129,더멜팅팟,햄버거,4.0,155,https://place.map.kakao.com/27325940,서울 관악구 관악로14가길 2,,02-877-1083,서울대학교,37.4783172,126.9560743
130,로향양꼬치 서울대2호점,양꼬치,3.9,36,https://place.map.kakao.com/1647666444,서울 관악구 낙성대로 12 1층,,02-887-1812,서울대학교,37.4775453,126.9590676
131,바로김밥,분식,4.0,9,https://place.map.kakao.com/509221177,서울 관악구 신림로 89,,02-6084-2960,서울대학교,37.4702513,126.9395117
132,허수아비 대학동점,"돈까스,우동",3.8,14,https://place.map.kakao.com/16528020,서울 관악구 호암로26길 72,,02-887-1187,서울대학교,37.4700491,126.9375656
133,낭만모로코,양식,4.4,99,https://place.map.kakao.com/1449345481,서울 관악구 관악로14길 88,,,서울대학교,37.4779406,126.9572079
134,오후의과일,디저트카페,2.7,275,https://place.map.kakao.com/924997751,서울 관악구 관악로14길 15 2층,,,서울대학교,37.4791817,126.9534766
135,소블리,"육류,고기",4.9,118,https://place.map.kakao.com/1367744153,서울 관악구 남부순환로234길 18 지하1층,,070-8888-0401,서울대학교,37.4785401,126.9569316
136,수해복마라탕,중식,4.1,20,https://place.map.kakao.com/1016786700,서울 관악구 신림로11길 20 1층,,02-871-6517,서울대학교,37.4695539,126.9387099
137,차이나당,중화요리,3.1,31,https://place.map.kakao.com/27076509,서울 관악구 낙성대로 16 2층,,02-882-0818,서울대학교,37.4771077,126.9588012
138,동명수산 녹두거리점,회,2.7,29,https://place.map.kakao.com/1788949333,서울 관악구 신림로11길 18-20 1층,,02-877-8822,서울대학교,37.4696344,126.9381492
139,오페라빈로스터스 낙성대점,카페,3.7,22,https://place.map.kakao.com/1492375063,서울 관악구 낙성대로 29 1층,,02-875-0066,서울대학교,37.4757874,126.9592774
140,소미당,일식,4.1,14,https://place.map.kakao.com/895603535,서울 관악구 대학6길 19,,02-882-4450,서울대학교,37.468899,126.9365204
141,이금옥샤브샤브칼국수,샤브샤브,4.8,18,https://place.map.kakao.com/26330129,서울 관악구 관악로 132,,02-871-5417,서울대학교,37.4769682,126.9527058
142,서울테이블,카페,3.4,129,https://place.map.kakao.com/1451597437,서울 관악구 관악로14길 28 2층,,02-889-5526,서울대학교,37.4789059,126.9539688
143,오지편한식당,일식,3.7,97,https://place.map.kakao.com/600990627,서울 관악구 관악로14길 105 1층,,,서울대학교,37.477829,126.9582338
144,라이후쿠,일본식라면,4.4,8,https://place.map.kakao.com/956209524,서울 관악구 신림로17길 57,,,서울대학교,37.4681832,126.9363881
145,밀향기손칼국수,국수,3.5,47,https://place.map.kakao.com/13287029,서울 관악구 봉천로 593 1층,,02-886-5479,서울대학교,37.4765437,126.9634196
146,명동칼국수,음식점,5.0,0,https://place.map.kakao.com/1997571726,서울 관악구 대학길 17,,02-888-0380,서울대학교,37.4698112,126.9381636
147,봉자한끼,한식,5.0,0,https://place.map.kakao.com/1603369888,서울 관악구 대학길 109 1층,,070-7537-1223,서울대학교,37.4658482,126.9377404
148,이가네감자탕,감자탕,4.3,2,https://place.map.kakao.com/16960027,서울 관악구 대학길 52,,02-876-1197,서울대학교,37.4682459,126.9375403
149,마나부,일식,4.0,96,https://place.map.kakao.com/638089735,서울 관악구 호암로22길 73 1층,,,서울대학교,37.4686584,126.9368256
150,화로상회 서울대점,"육류,고기",5.0,11,https://place.map.kakao.com/1931332560,서울 관악구 신림로 85,,02-876-2292,서울대학교,37.4702891,126.9399069
151,탐나종합어시장 신림녹두거리점,회,2.0,9,https://place.map.kakao.com/1000947144,서울 관악구 대학길 52 1층,,02-877-3313,서울대학교,37.4682459,126.9375403
152,연아초밥,일식,4.8,11,https://place.map.kakao.com/652906407,서울 관악구 신림로 81 1층 1호,,02-875-9165,서울대학교,37.4703478,126.9403311
153,두만강샤브샤브 봉천점,샤브샤브,3.7,57,https://place.map.kakao.com/13306781,서울 관악구 봉천로 537 1층,,02-885-7966,서울대학교,37.4787665,126.9576725
154,콩지름,국밥,4.3,5,https://place.map.kakao.com/134436190,서울 관악구 호암로24길 77 1층,,02-874-9282,서울대학교,37.4692762,126.9375901
155,피자보이시나 서울대점,피자,4.5,146,https://place.map.kakao.com/1070769122,서울 관악구 남부순환로234길 31 1층,,02-877-6550,서울대학교,37.4779266,126.9568418
156,미쳐버린파닭 서울대점,치킨,3.0,4,https://place.map.kakao.com/23522149,서울 관악구 대학7길 53,매일 15:30 ~ 02:00,02-882-9955,서울대학교,37.4686829,126.9406531
157,스키나스시,"초밥,롤",4.6,22,https://place.map.kakao.com/309509107,서울 관악구 신림로 91 1층,매일 17:00 ~ 03:00,02-875-5051,서울대학교,37.47029879999999,126.9390781
158,모다모다,일식,4.2,116,https://place.map.kakao.com/498327338,서울 관악구 관악로14길 36 1층,영업시간 매일 11:00 ~ 22:00 · 브레이크타임 월~금 15:00 ~ 17:00,02-6092-3233,서울대학교,37.4787671,126.9544807
159,링고,"호프,요리주점",4.0,7,https://place.map.kakao.com/16992973,서울 관악구 신림로 85 지하 1층,"월,화,수,목,일 17:00 ~ 02:00",,서울대학교,37.4702891,126.9399069
160,카페여기,카페,3.3,23,https://place.map.kakao.com/234893604,서울 관악구 호암로22길 31 1층,영업시간 매일 09:00 ~ 24:00,02-882-5945,서울대학교,37.4689078,126.9344978
161,메밀쟁이,국수,4.7,3,https://place.map.kakao.com/516623109,서울 관악구 대학길 60 1층,,02-873-5613,서울대학교,37.46797120000001,126.9375589
162,레커훈스 본점,치킨,4.0,13,https://place.map.kakao.com/14498969,서울 관악구 호암로22길 51,매일 16:00 ~ 01:00,02-873-4992,서울대학교,37.4687467,126.9356193
163,히포커피 서울대점,카페,2.9,2,https://place.map.kakao.com/128388488,서울 관악구 호암로24길 66 1층,,02-6052-6669,서울대학교,37.4691987,126.9367807
164,커피볶는여자,커피전문점,4.2,162,https://place.map.kakao.com/246370372,서울 관악구 관악로14가길 2,영업시간 매일 12:00 ~ 23:30,,서울대학교,37.4783172,126.9560743
165,멘쇼우라멘,일본식라면,3.9,94,https://place.map.kakao.com/1493535426,서울 관악구 남부순환로230길 25,,,서울대학교,37.4790309,126.9555737
166,오늘그대와,이탈리안,2.5,150,https://place.map.kakao.com/1114713895,서울 관악구 관악로14길 65,,02-882-0303,서울대학교,37.4784736,126.95614
167,브하브베이커리카페,"제과,베이커리",5.0,1,https://place.map.kakao.com/391175075,서울 관악구 대학7길 24,,070-7576-3386,서울대학교,37.4683086,126.9389061
168,대가왕돈카츠,"돈까스,우동",4.8,13,https://place.map.kakao.com/1602362139,서울 관악구 호암로22길 69,,02-888-1201,서울대학교,37.4686199,126.9366476
169,라페리체,이탈리안,4.0,70,https://place.map.kakao.com/898529579,서울 관악구 관악로14길 34 지하1층,,070-8773-1001,서울대학교,37.478539,126.9556069
170,베이컨시,이탈리안,4.8,57,https://place.map.kakao.com/1370145039,서울 관악구 봉천로62길 5 옥산빌딩 지하1층,,,서울대학교,37.4778012,126.9588719
171,근덕이삼척꽈배기,간식,5.0,0,https://place.map.kakao.com/108701400,서울 관악구 대학7길 7 1층,,0507-1444-2364,서울대학교,37.4685087,126.9381086
172,충청삼겹,삼겹살,4.4,163,https://place.map.kakao.com/1352257684,서울 관악구 남부순환로230길 15 1층,,02-876-8810,서울대학교,37.4792299,126.9555619
173,가산골,닭요리,4.0,0,https://place.map.kakao.com/1259938496,서울 관악구 낙성대로 76,,02-872-4556,서울대학교,37.4716242,126.9582182
174,덕봉식당,한식,3.4,24,https://place.map.kakao.com/571257623,서울 관악구 호암로24길 24 1층,,,서울대학교,37.4694895,126.9344613
175,샐러드버킷,샤브샤브,5.0,4,https://place.map.kakao.com/1301962502,서울 관악구 대학길 76,,,서울대학교,37.4673066,126.9375004
176,모두랑고시뷔페,한식뷔페,4.7,3,https://place.map.kakao.com/2041850706,서울 관악구 호암로26길 63 지하,,02-877-4657,서울대학교,37.4703162,126.9372136
177,스시스캔들,"초밥,롤",3.9,38,https://place.map.kakao.com/2105013505,서울 관악구 낙성대로 22-14 1층,,02-3285-6885,서울대학교,37.4771578,126.9585518
178,펠리치따,디저트카페,4.4,9,https://place.map.kakao.com/1079841682,서울 관악구 신림로12길 9,,02-885-5775,서울대학교,37.4713104,126.9380542
179,엘따뻬오,양식,4.1,71,https://place.map.kakao.com/2119986453,서울 관악구 봉천로 580 2층,,02-882-8835,서울대학교,37.4768437,126.961775
180,본가왕해물찜 신림녹두점,"해물,생선",4.5,5,https://place.map.kakao.com/26292177,서울 관악구 신림로 94,,02-885-7888,서울대학교,37.4709376,126.9390837
181,스타벅스 관악서울대입구R점,커피전문점,3.7,34,https://place.map.kakao.com/2074224653,서울 관악구 관악로 158 BS타워 1층,,1522-3232,서울대학교,37.4792703,126.9527981
182,가마솥도시락,도시락,5.0,0,https://place.map.kakao.com/19748162,서울 관악구 대학7길 49,,02-888-3312,서울대학교,37.4686581,126.9404047
183,탑짜장,중화요리,3.3,1,https://place.map.kakao.com/11831023,서울 관악구 대학6길 13,,02-877-5049,서울대학교,37.4688697,126.9368746
184,이자카야잔잔 샤로수길점,일본식주점,3.8,42,https://place.map.kakao.com/1714588996,서울 관악구 남부순환로230길 22 1층,,02-877-0876,서울대학교,37.4790532,126.9553473
185,카페프레임,카페,4.0,87,https://place.map.kakao.com/948781290,서울 관악구 관악로14길 94 지하1층,영업시간 매일 12:00 ~ 22:00,02-6082-1049,서울대학교,37.4778682,126.9575667
186,우리설렁탕 신림점,설렁탕,2.5,30,https://place.map.kakao.com/13305311,서울 관악구 신림로 190,매일 00:00 ~ 24:00,02-886-9317,서울대학교,37.4743506,126.9364488
187,본죽 신림고시촌점,죽,4.6,0,https://place.map.kakao.com/7900596,서울 관악구 대학길 30,영업시간 매일 09:30 ~ 22:00,02-887-6288,서울대학교,37.4694084,126.9376606
188,참숯최가네고기집&정육,"육류,고기",4.2,4,https://place.map.kakao.com/1423199439,서울 관악구 대학길 52 1층,매일 10:30 ~ 02:00,02-877-2306,서울대학교,37.4682459,126.9375403
189,새실정원,카페,2.3,114,https://place.map.kakao.com/313757181,서울 관악구 관악로14길 103 2층,영업시간 매일 12:00 ~ 22:00,,서울대학교,37.4778276,126.9580789
190,스시건,"초밥,롤",3.3,10,https://place.map.kakao.com/1557148482,서울 관악구 호암로24길 35 청송빌딩 1층,영업시간 매일 11:00 ~ 21:00,02-871-8286,서울대학교,37.4696292,126.9351153
191,신전떡볶이 신림녹두점,떡볶이,2.5,5,https://place.map.kakao.com/27543920,서울 관악구 대학5길 8 1층,매일 11:00 ~ 01:00,02-875-0102,서울대학교,37.4691333,126.9382263
192,돼지네,삼겹살,4.2,38,https://place.map.kakao.com/8956221,서울 관악구 봉천로 594,월~토 17:00 ~ 01:00,02-886-0330,서울대학교,37.476236,126.9631615
193,프랑스홍합집,양식,3.3,179,https://place.map.kakao.com/27178226,서울 관악구 관악로14길 22,영업시간 화~목 17:00 ~ 24:00,02-882-1705,서울대학교,37.4789734,126.9537553
194,이태리부대찌개 낙성대점,"찌개,전골",4.1,38,https://place.map.kakao.com/381030182,서울 관악구 봉천로 600 1층,영업시간 매일 11:00 ~ 22:00,070-7543-3368,서울대학교,37.4760809,126.9636634
195,스윗밸런스 샤로수점,양식,2.6,45,https://place.map.kakao.com/27177742,서울 관악구 관악로14길 99 1층,영업시간 매일 10:00 ~ 21:00 · 브레이크타임 매일 15:00 ~ 17:00,02-883-3225,서울대학교,37.4779231,126.9578707
196,카페로프트,카페,3.8,0,https://place.map.kakao.com/21443291,서울 관악구 서림길 125,,02-882-1998,서울대학교,37.4711466,126.9406782
197,몽중인 kitchen&bar,중식,3.6,17,https://place.map.kakao.com/937528174,서울 관악구 관악로14가길 13 1층,월~토 18:00 ~ 03:00,,서울대학교,37.4777577,126.9560855
198,미친키친,"돈까스,우동",4.3,38,https://place.map.kakao.com/1351564381,서울 관악구 남부순환로 1913 2층,,02-878-3778,서울대학교,37.477909,126.9620089
199,다온김밥,분식,4.5,4,https://place.map.kakao.com/1557199804,서울 관악구 대학길 30 1층,,02-879-0991,서울대학교,37.4694084,126.9376606
200,고앤고 서울대입구점,"육류,고기",4.3,26,https://place.map.kakao.com/917075375,서울 관악구 관악로 136 1층,,02-877-8492,서울대학교,37.4773676,126.9527308
201,미소김밥,분식,5.0,4,https://place.map.kakao.com/625774841,서울 관악구 대학길 46 1층,,02-877-7001,서울대학교,37.468664,126.9375457
202,몽닭발,닭요리,4.8,9,https://place.map.kakao.com/17127738,서울 관악구 신림로11길 11-9,,02-878-9982,서울대학교,37.4700765,126.9394136
203,파리바게뜨 서울대녹두점,"제과,베이커리",4.9,3,https://place.map.kakao.com/889589092,서울 관악구 대학길 17 1층,,02-872-8082,서울대학교,37.4698112,126.9381636
204,코코이이,일본식주점,3.5,6,https://place.map.kakao.com/27149501,서울 관악구 대학길 37 2층,,02-6010-1147,서울대학교,37.4689827,126.9378125
205,도리도리하찌,닭요리,2.4,67,https://place.map.kakao.com/25067887,서울 관악구 관악로14길 77,,02-889-4490,서울대학교,37.4783545,126.9567307
206,경원치킨 본점,치킨,3.6,34,https://place.map.kakao.com/27580388,서울 관악구 봉천로 600-1,,02-876-3303,서울대학교,37.4760044,126.9637753
207,곱창대장 대학동점,"곱창,막창",5.0,3,https://place.map.kakao.com/983091544,서울 관악구 대학길 39-4,,02-875-2847,서울대학교,37.46887419999999,126.9379723
208,기꾸참치,참치회,4.2,5,https://place.map.kakao.com/25040811,서울 관악구 호암로26길 67,,,서울대학교,37.4703025,126.9373857
209,돈지산,"육류,고기",5.0,4,https://place.map.kakao.com/33130092,서울 관악구 호암로26길 71,,02-887-8288,서울대학교,37.4702562,126.9375469
210,생활맥주 서울대입구점,"호프,요리주점",4.0,58,https://place.map.kakao.com/1650804029,서울 관악구 관악로14가길 2 지하1층,,02-883-1777,서울대학교,37.4783172,126.9560743
211,탕가네 서울대점,"찌개,전골",4.0,2,https://place.map.kakao.com/20627061,서울 관악구 호암로24길 75,,02-872-3636,서울대학교,37.4693044,126.9374134
212,푸라닭치킨 서림점,치킨,5.0,1,https://place.map.kakao.com/500228994,서울 관악구 신림로 86,,02-883-9206,서울대학교,37.4708676,126.9399123
213,빨봉분식 서울대점,분식,1.9,5,https://place.map.kakao.com/27273268,서울 관악구 호암로24길 76 2층,,02-3285-5282,서울대학교,37.4691077,126.9373834
214,오렌지연필,카페,3.0,4,https://place.map.kakao.com/18826167,서울 관악구 남부순환로 1895,,02-6295-6000,서울대학교,37.4786813,126.9602729
215,순보보,퓨전한식,4.1,28,https://place.map.kakao.com/27094502,서울 관악구 봉천로62길 10,,02-883-9343,서울대학교,37.4774553,126.9586686
216,고요서울,디저트카페,2.7,149,https://place.map.kakao.com/2036725648,서울 관악구 남부순환로226길 31 2층,,02-876-1232,서울대학교,37.4791861,126.9537648
217,어부사시가,"해물,생선",4.4,110,https://place.map.kakao.com/285870106,서울 관악구 관악로14길 31,,02-877-9288,서울대학교,37.4789727,126.9542856
218,코우드,커피전문점,4.9,13,https://place.map.kakao.com/99776326,서울 관악구 인헌길 101 1층,,,서울대학교,37.4711081,126.9675803
219,포36거리 대학동점,동남아음식,4.0,14,https://place.map.kakao.com/11520645,서울 관악구 호암로24길 22 1층,,02-877-4282,서울대학교,37.4695693,126.9343144
220,스타벅스 낙성대역점,커피전문점,4.1,15,https://place.map.kakao.com/1870541602,서울 관악구 남부순환로 1908,,1522-3232,서울대학교,37.4776649,126.9611926
221,이디야커피 녹두거리점,커피전문점,2.1,0,https://place.map.kakao.com/27065188,서울 관악구 신림로 91,,02-882-3618,서울대학교,37.47029879999999,126.9390781
222,양자강,중화요리,3.2,2,https://place.map.kakao.com/12751926,서울 관악구 신림로 81,,02-888-8365,서울대학교,37.4703478,126.9403311
223,소문난집,삼계탕,4.0,39,https://place.map.kakao.com/16381673,서울 관악구 인헌2길 8-2,,02-888-7745,서울대학교,37.4752207,126.9666837
224,동대문엽기떡볶이 신림녹두점,떡볶이,2.1,7,https://place.map.kakao.com/22052109,서울 관악구 신림로11길 9 1층,,02-872-8592,서울대학교,37.4700169,126.9389973
225,모모즉석떡볶이,떡볶이,3.3,29,https://place.map.kakao.com/20946263,서울 관악구 남부순환로246나길 19,,02-885-2497,서울대학교,37.4748543,126.9650664
226,마미쿡,햄버거,4.2,6,https://place.map.kakao.com/27293351,서울 관악구 신림로 120,,02-822-9472,서울대학교,37.4712703,126.9360934
227,한술골목참치 낙성대점,참치회,3.7,33,https://place.map.kakao.com/679859146,서울 관악구 낙성대역길 69 1층,,,서울대학교,37.4750155,126.9628042
228,트라토리아초이,이탈리안,4.6,14,https://place.map.kakao.com/192253442,서울 관악구 호암로26길 49,,02-877-3770,서울대학교,37.4704196,126.9363881
229,화상손만두 낙성대점,분식,3.5,18,https://place.map.kakao.com/1104645895,서울 관악구 남부순환로244길 18,,02-3285-8842,서울대학교,37.4762259,126.9629367
230,옐로우버터드림,디저트카페,3.2,130,https://place.map.kakao.com/833711012,서울 관악구 관악로14나길 10 2층,,02-876-5533,서울대학교,37.4776206,126.957287
231,라티놀 서울대본점,분식,2.8,33,https://place.map.kakao.com/11918742,서울 관악구 관악로 154-5,영업시간 매일 09:00 ~ 21:00,02-875-8285,서울대학교,37.4789263,126.9528142
232,이레김밥 봉천1호점,분식,2.9,16,https://place.map.kakao.com/15284014,서울 관악구 남부순환로246길 31,영업시간 월~토 06:00 ~ 22:00,02-878-1144,서울대학교,37.4750438,126.964174
233,매일식당,한식,4.1,13,https://place.map.kakao.com/1148615268,서울 관악구 신림로 129,영업시간 월~토 10:40 ~ 19:30 · 브레이크타임 월~토 14:00 ~ 16:30,070-4110-1212,서울대학교,37.4708163,126.934915
234,낙성대돈까스,"돈까스,우동",4.1,19,https://place.map.kakao.com/27509674,서울 관악구 인헌길 15 1층,"영업시간 월,수,목,금,토,일 11:30 ~ 21:00 · 브레이크타임 월,수,목,금,토,일 15:00 ~ 16:00",02-871-0790,서울대학교,37.4748476,126.9670834
235,순천전통순대국,순대,4.2,13,https://place.map.kakao.com/23957029,서울 관악구 낙성대로4가길 10,,02-884-0525,서울대학교,37.4765424,126.958653
236,국수나무 신림녹두거리점,국수,4.5,2,https://place.map.kakao.com/1378440181,서울 관악구 대학길 59 A동 B1층,영업시간 월~토 11:00 ~ 21:00,02-6953-6730,서울대학교,37.4679831,126.9377757
237,전설애국밥,국밥,3.5,14,https://place.map.kakao.com/166003229,서울 관악구 호암로26길 61,"영업시간 월,화,수,목,금,일 10:00 ~ 24:00",02-882-1801,서울대학교,37.4703254,126.9370326
238,고기박사 서울대점,"육류,고기",3.8,41,https://place.map.kakao.com/356163142,서울 관악구 남부순환로 1874 화창빌딩 1층,매일 00:00 ~ 24:00,02-871-1101,서울대학교,37.4789698,126.9577375
239,코바코 서울대점,"돈까스,우동",3.1,2,https://place.map.kakao.com/13016201,서울 관악구 신림로 73,"영업시간 월,화,목,금,토,일 10:30 ~ 21:00",02-882-8288,서울대학교,37.488805,126.9274069
240,오인자아구찜,아구,3.7,77,https://place.map.kakao.com/26451876,서울 관악구 남부순환로 1924,영업시간 매일 11:00 ~ 23:00 · 브레이크타임 월~금 15:00 ~ 16:30,02-882-8422,서울대학교,37.4768687,126.9628668
241,가마로강정 녹두거리점,닭강정,2.4,4,https://place.map.kakao.com/730436367,서울 관악구 대학길 47 1층,매일 14:00 ~ 01:00,02-882-9282,서울대학교,37.4685761,126.9377922
242,왕짜장 신림점,중화요리,3.3,2,https://place.map.kakao.com/16682186,서울 관악구 신림로17길 72,,02-882-8805,서울대학교,37.4675319,126.9361961
243,문득,이탈리안,3.0,182,https://place.map.kakao.com/1223991903,서울 관악구 관악로14길 8,영업시간 매일 11:30 ~ 22:00,02-882-2186,서울대학교,37.4790747,126.9529942
244,돈까스랑밥이랑,분식,5.0,1,https://place.map.kakao.com/1082779977,서울 관악구 신림로11길 56,,,서울대학교,37.4679776,126.9386734
245,얼큰수제비해물칼국수,수제비,5.0,3,https://place.map.kakao.com/1505886914,서울 관악구 관악로 113 1층,,02-888-0712,서울대학교,37.4751615,126.9524914
246,뉴욕택시디저트,디저트카페,4.8,40,https://place.map.kakao.com/820394456,서울 관악구 남부순환로 1870 1층,영업시간 월~토 11:00 ~ 22:00,070-8711-1013,서울대학교,37.479212,126.9572004
247,버거킹 낙성대점,패스트푸드,2.1,11,https://place.map.kakao.com/2027883306,서울 관악구 남부순환로 1934 1층,영업시간 매일 09:00 ~ 23:00,070-7438-8235,서울대학교,37.4765986,126.963723
248,따로닭 신림1호점,치킨,4.8,0,https://place.map.kakao.com/1952654621,서울 관악구 대학길 47 1층,월~목 16:00 ~ 01:00,02-873-7727,서울대학교,37.4685761,126.9377922
249,낙성기사식당,기사식당,4.3,26,https://place.map.kakao.com/16846910,서울 관악구 봉천로 550,영업시간 월~토 10:00 ~ 21:30,02-883-1819,서울대학교,37.4780542,126.9587429
250,홍콩반점0410 신림고시촌점,중화요리,2.5,5,https://place.map.kakao.com/18583196,서울 관악구 호암로24길 66 2층,영업시간 매일 11:00 ~ 24:00 · 브레이크타임 매일 15:00 ~ 16:00,02-877-0410,서울대학교,37.4691987,126.9367807
251,맨프롬오키나와,일본식주점,3.6,29,https://place.map.kakao.com/1196077786,서울 관악구 관악로12길 30,화~일 18:00 ~ 02:00,,서울대학교,37.4778843,126.954095
252,페리카나 신림2점,치킨,3.5,1,https://place.map.kakao.com/1816705288,서울 관악구 대학길 70,,02-876-4811,서울대학교,37.4675744,126.9375181
253,사시사철흑염소오리,오리,3.4,6,https://place.map.kakao.com/14602460,서울 관악구 남부순환로 1888 1층,영업시간 매일 10:30 ~ 22:00,02-877-5247,서울대학교,37.4785051,126.9589921
254,샤로스톤,"스테이크,립",3.6,62,https://place.map.kakao.com/13351560,서울 관악구 관악로14길 63,영업시간 매일 16:00 ~ 24:00,02-885-8292,서울대학교,37.47855819999999,126.9560224
255,망원동티라미수 샤로수길점,"제과,베이커리",2.5,124,https://place.map.kakao.com/326221389,서울 관악구 관악로14길 30,,,서울대학교,37.4788509,126.9541697
256,투고샐러드 서울대입구점,양식,3.8,25,https://place.map.kakao.com/1884898904,서울 관악구 남부순환로234길 34 1층,,02-882-0309,서울대학교,37.4778761,126.9566345
257,저스트로맨틱,카페,5.0,28,https://place.map.kakao.com/1289020581,서울 관악구 신림로 134 1층,,,서울대학교,37.4716391,126.934831
258,피자스쿨 신림9동점,피자,2.4,3,https://place.map.kakao.com/11869322,서울 관악구 대학6길 2,,02-877-1192,서울대학교,37.468938,126.9375497
259,딱좋아,회,2.4,25,https://place.map.kakao.com/20946269,서울 관악구 인헌2길 20,,02-877-1589,서울대학교,37.4754796,126.9658854
260,호부침개,한식,4.6,4,https://place.map.kakao.com/12224301,서울 관악구 대학5길 14,,02-887-4282,서울대학교,37.4691258,126.9385
261,안심탕수육,분식,5.0,1,https://place.map.kakao.com/443995705,서울 관악구 신림로11길 41,,02-882-3711,서울대학교,37.4685986,126.9388885
262,정도참치,참치회,3.7,25,https://place.map.kakao.com/53908339,서울 관악구 봉천로 594 2층,,070-4125-7865,서울대학교,37.476236,126.9631615
263,흑룡강,중화요리,2.3,8,https://place.map.kakao.com/13287208,서울 관악구 낙성대로 22-1,,02-886-8556,서울대학교,37.476648,126.9586832
264,태기산더덕순대 낙성대점,순대,4.1,21,https://place.map.kakao.com/26376963,서울 관악구 봉천로 592,,02-875-5377,서울대학교,37.4764002,126.9628823
265,안녕과자점,"제과,베이커리",3.2,133,https://place.map.kakao.com/1805546225,서울 관악구 남부순환로228길 20 1층,,02-3285-0908,서울대학교,37.4788338,126.9547862
266,종로계림닭도리탕원조 서울대입구점,닭요리,3.1,77,https://place.map.kakao.com/1253142556,서울 관악구 관악로 152 2층,,02-877-3063,서울대학교,37.4786593,126.9525782
267,백채김치찌개 대학동점,"찌개,전골",2.8,29,https://place.map.kakao.com/1693601178,서울 관악구 호암로24길 22,,02-871-3620,서울대학교,37.4695693,126.9343144
268,서오릉피자 관악점,피자,4.8,33,https://place.map.kakao.com/512017232,서울 관악구 남부순환로 1925 1층,,02-875-1600,서울대학교,37.4774876,126.9632709
269,네모네모,디저트카페,5.0,5,https://place.map.kakao.com/1015534272,서울 관악구 낙성대로3길 33-14 1층,,070-7626-9860,서울대학교,37.473857,126.9605704
270,심가면옥,냉면,2.3,10,https://place.map.kakao.com/16527144,서울 관악구 신림로 121,,02-887-2777,서울대학교,37.4706668,126.935817
271,역전할머니맥주 신림녹두점,"호프,요리주점",3.0,4,https://place.map.kakao.com/1488034452,서울 관악구 호암로24길 65 1층,,02-877-6544,서울대학교,37.4693855,126.9368187
272,킹콩부대찌개 대학동점,"찌개,전골",3.4,2,https://place.map.kakao.com/27450588,서울 관악구 대학길 18 2층,,02-883-4314,서울대학교,37.4698606,126.9378498
273,베어문,카페,4.9,20,https://place.map.kakao.com/1876455914,서울 관악구 호암로22길 29 1층,,070-4177-0785,서울대학교,37.4689405,126.9343255
274,이태리파파,피자,4.7,99,https://place.map.kakao.com/1924197516,서울 관악구 관악로12길 3-8 1층,,02-886-9993,서울대학교,37.4785381,126.952832
275,파파존스 서울대점,피자,2.8,1,https://place.map.kakao.com/11225475,서울 관악구 신림로 90 대신빌딩2층,,02-887-8081,서울대학교,37.4858492,126.9207552
276,리춘시장 샤로수길지점,중화요리,3.8,50,https://place.map.kakao.com/1211015576,서울 관악구 관악로14길 22,,02-6448-0410,서울대학교,37.4789734,126.9537553
277,나에게오는길,카페,3.8,95,https://place.map.kakao.com/461426343,서울 관악구 관악로14길 82 2층,,010-6831-0423,서울대학교,37.47809549999999,126.9569842
278,김가네 서울대점,분식,2.0,1,https://place.map.kakao.com/11017640,서울 관악구 신림로 91 2호,,02-884-8806,서울대학교,37.47029879999999,126.9390781
279,배스킨라빈스 신림남부점,아이스크림,1.5,6,https://place.map.kakao.com/1866581274,서울 관악구 신림로 115,,02-878-3133,서울대학교,37.4705951,126.9364557
280,쁘띠크,"제과,베이커리",3.1,117,https://place.map.kakao.com/477998437,서울 관악구 관악로12길 58-2 101호,,,서울대학교,37.4775229,126.9556128
281,카페내자리,카페,4.5,1,https://place.map.kakao.com/815861575,서울 관악구 관악로5길 30 101호,,02-2088-5833,서울대학교,37.4742312,126.9522319
282,아나타노로바다야끼,일식,4.8,53,https://place.map.kakao.com/512284028,서울 관악구 관악로14길 88,,02-875-0967,서울대학교,37.4779406,126.9572079
283,알촌 신림점,한식,3.5,9,https://place.map.kakao.com/20293204,서울 관악구 호암로24길 55,,02-882-5659,서울대학교,37.46949499999999,126.9361751
284,에그썸,양식,3.3,227,https://place.map.kakao.com/29164732,서울 관악구 남부순환로234길 28 1층,,02-6465-2442,서울대학교,37.4781481,126.9567223
285,참나라장작구이삼계탕 서울대점,"육류,고기",1.7,2,https://place.map.kakao.com/652668522,서울 관악구 관악로 112,,02-877-1991,서울대학교,37.4752332,126.9530545
286,한솥도시락 신림고시촌점,도시락,2.2,0,https://place.map.kakao.com/11634891,서울 관악구 호암로24길 77,,02-886-9949,서울대학교,37.4692762,126.9375901
287,커피버넷,커피전문점,4.3,15,https://place.map.kakao.com/27494808,서울 관악구 봉천로 595 1층,,070-8106-4175,서울대학교,37.4764973,126.9635729
288,우마이텐,일본식라면,3.4,18,https://place.map.kakao.com/27280236,서울 관악구 봉천로 596,,02-6092-9992,서울대학교,37.4761545,126.9634284
289,라빈느,카페,5.0,3,https://place.map.kakao.com/20247657,서울 관악구 신림로17길 57,,070-4127-0506,서울대학교,37.4681832,126.9363881
290,오거트,카페,3.4,25,https://place.map.kakao.com/360780210,서울 관악구 관악로10길 31-20,영업시간 수~토 14:00 ~ 17:00,,서울대학교,37.4775814,126.9546905
291,투썸플레이스 신림녹두거리점,커피전문점,2.0,1,https://place.map.kakao.com/1302305801,"서울 관악구 신림로 127 1층 103,104호",매일 08:00 ~ 01:00,02-877-2525,서울대학교,37.4707698,126.9352458
292,투썸플레이스 서울대입구역점,커피전문점,2.1,19,https://place.map.kakao.com/27324791,서울 관악구 관악로 157,"영업시간 월,화,수,목,일 08:00 ~ 24:00",02-882-5474,서울대학교,37.4793939,126.9519936
293,카페인,커피전문점,4.6,3,https://place.map.kakao.com/1202064700,서울 관악구 호암로24길 48,영업시간 월~토 07:00 ~ 23:00,,서울대학교,37.4693183,126.9357593
294,써브웨이 낙성대역점,샌드위치,3.0,20,https://place.map.kakao.com/2093495429,서울 관악구 남부순환로 1904 1층 102호,영업시간 매일 08:00 ~ 23:00,02-877-6687,서울대학교,37.4778262,126.9606782
295,함흥냉면,냉면,3.8,9,https://place.map.kakao.com/16883945,서울 관악구 봉천로 586,영업시간 매일 10:00 ~ 22:00,02-885-7672,서울대학교,37.4766298,126.9622381
296,십장생베이커리,"제과,베이커리",4.7,20,https://place.map.kakao.com/1126750690,서울 관악구 관악로6길 94 1층,,02-875-0103,서울대학교,37.4781719,126.9536015
297,토마토김밥 신림점,분식,2.3,2,https://place.map.kakao.com/21409251,서울 관악구 대학5길 13,,02-874-5336,서울대학교,37.4693113,126.9384906
298,도미노피자 신림점,피자,1.8,12,https://place.map.kakao.com/20281417,서울 관악구 신림로 123,영업시간 매일 11:00 ~ 22:00,02-882-3081,서울대학교,37.4706949,126.9356324
299,연탄부락 낙성대점,"육류,고기",4.4,56,https://place.map.kakao.com/16853601,서울 관악구 남부순환로 1891,매일 16:00 ~ 03:00,02-885-8158,서울대학교,37.4787325,126.9598516
300,조선펍에디,"호프,요리주점",4.4,42,https://place.map.kakao.com/1162794104,서울 관악구 남부순환로224길 31 지하 1층,매일 18:00 ~ 02:00,,서울대학교,37.4794026,126.9532869
301,문득낙성,디저트카페,3.5,72,https://place.map.kakao.com/239960824,서울 관악구 남부순환로 1929-9 102호,영업시간 매일 10:00 ~ 24:00,,서울대학교,37.4775947,126.9636617
302,죠스떡볶이 신림녹두점,떡볶이,2.9,4,https://place.map.kakao.com/13042715,서울 관악구 대학길 36,영업시간 매일 11:00 ~ 23:00,02-874-1236,서울대학교,37.469084,126.9375555
303,깐족깐족,"족발,보쌈",4.2,45,https://place.map.kakao.com/699657664,서울 관악구 인헌길 9,영업시간 월~토 12:00 ~ 24:00,02-875-3369,서울대학교,37.4750675,126.9671889
304,배영만당진아구동태찜탕 낙성대점,한식,3.5,9,https://place.map.kakao.com/1662441502,서울 관악구 봉천로 560 1층,매일 00:00 ~ 24:00,02-872-7978,서울대학교,37.4775807,126.9598179
305,황제짬뽕,중화요리,3.8,5,https://place.map.kakao.com/1061246564,서울 관악구 호암로26길 48,,02-871-4855,서울대학교,37.4702432,126.9362074
306,포크&누들,"돈까스,우동",3.3,5,https://place.map.kakao.com/2085053369,서울 관악구 대학7길 17,,02-872-5703,서울대학교,37.4684824,126.9386911
307,왕돈까스왕냉면 낙성대점,"돈까스,우동",3.9,23,https://place.map.kakao.com/14935629,서울 관악구 봉천로 584,,02-886-9297,서울대학교,37.4767046,126.9621466
308,와인창고잡,와인바,4.3,46,https://place.map.kakao.com/23326303,서울 관악구 남부순환로226길 31 1층,,,서울대학교,37.4791861,126.9537648
309,더벤티 신림녹두거리점,커피전문점,2.8,2,https://place.map.kakao.com/1355538262,서울 관악구 대학길 35 1층,,,서울대학교,37.4690898,126.9378076
310,바바플,간식,2.6,15,https://place.map.kakao.com/658787789,서울 관악구 호암로24길 55,,,서울대학교,37.46949499999999,126.9361751
311,뚜레쥬르 낙성대점,"제과,베이커리",2.6,2,https://place.map.kakao.com/7849415,서울 관악구 인헌6길 21 1층,,02-883-8298,서울대학교,37.4738661,126.9655085
312,포석닭볶음탕,닭요리,4.5,23,https://place.map.kakao.com/2007692428,서울 관악구 봉천로 614-1 지하1층,,02-874-0156,서울대학교,37.4754463,126.9652776
313,토마토김밥 대학동점,분식,3.1,6,https://place.map.kakao.com/15668760,서울 관악구 호암로22길 51,,02-877-0091,서울대학교,37.4687467,126.9356193
314,정남옥,한식,3.8,108,https://place.map.kakao.com/1473524459,서울 관악구 신림로26길 24-8 1층,,02-887-7888,서울대학교,37.4725315,126.9346702
315,돌초밥,"초밥,롤",4.3,21,https://place.map.kakao.com/27558967,서울 관악구 남부순환로 1929-16 1층,,02-882-4692,서울대학교,37.4773916,126.9639291
316,엄마밥상,한식,2.5,3,https://place.map.kakao.com/16737409,서울 관악구 서림길 113,,02-889-8259,서울대학교,37.4715192,126.9401314
317,미스터보쌈5379 녹두거리점,"족발,보쌈",3.1,26,https://place.map.kakao.com/1749477850,서울 관악구 대학길 22,,0507-744-5378,서울대학교,37.4697258,126.9377816
318,북촌손만두 낙성대점,분식,3.0,5,https://place.map.kakao.com/1453767821,서울 관악구 낙성대로3길 21 1층,,02-882-1444,서울대학교,37.4745936,126.960108
319,마약타코야끼,간식,4.2,0,https://place.map.kakao.com/1230007075,서울 관악구 대학7길 2,,,서울대학교,37.4683481,126.937783
320,구울락,"육류,고기",4.8,9,https://place.map.kakao.com/1958664678,서울 관악구 인헌길 55,,02-882-8474,서울대학교,37.4729845,126.9668095
321,처갓집양념치킨 동방점,치킨,4.1,0,https://place.map.kakao.com/8084779,서울 관악구 대학길 35,,02-871-6111,서울대학교,37.4690898,126.9378076
322,올바른버거 본점,햄버거,3.5,9,https://place.map.kakao.com/817254884,서울 관악구 호암로24길 77,,02-6497-3432,서울대학교,37.4692762,126.9375901
323,부리또리꼬 신림점,"멕시칸,브라질",4.8,9,https://place.map.kakao.com/1845538213,서울 관악구 신림로21길 39,,02-882-8002,서울대학교,37.4686155,126.9352628
324,동명수산 봉천점,회,4.1,28,https://place.map.kakao.com/1360944398,서울 관악구 인헌길 14 1층,,070-4098-4445,서울대학교,37.4749903,126.9666044
325,스톡홀름 샐러드,양식,3.6,0,https://place.map.kakao.com/1227289630,서울 관악구 신림로17길 63,,,서울대학교,37.4679091,126.936366
326,누들하우스,일본식라면,4.7,14,https://place.map.kakao.com/1804151243,서울 관악구 관악로14나길 6 1층,,070-8624-8497,서울대학교,37.4777642,126.9573268
327,녹두상회,술집,5.0,2,https://place.map.kakao.com/200026797,서울 관악구 신림로11길 18-7,,,서울대학교,37.4694935,126.9384078
328,브라운뼈다귀,감자탕,5.0,0,https://place.map.kakao.com/1586943761,서울 관악구 대학7길 21,,02-882-5668,서울대학교,37.4684543,126.9388758
329,전호메밀국수,국수,3.8,15,https://place.map.kakao.com/20946194,서울 관악구 봉천로 533,,02-888-4141,서울대학교,37.4789576,126.9571655
330,엔조 파스타 피자,양식,4.2,38,https://place.map.kakao.com/1800787475,서울 관악구 관악로 154,,02-875-0807,서울대학교,37.4788977,126.9526427
331,달콤한순영씨네,커피전문점,5.0,2,https://place.map.kakao.com/1701426865,서울 관악구 관악로 106,,02-877-2243,서울대학교,37.474612,126.9532158
332,프로젝트서울,디저트카페,3.1,131,https://place.map.kakao.com/262685533,서울 관악구 봉천로 518-4 4층,,070-7753-5678,서울대학교,37.4794764,126.9555121
333,전주콩나물국밥,국밥,1.3,1,https://place.map.kakao.com/667102357,서울 관악구 호암로24길 77,,,서울대학교,37.4692762,126.9375901
334,the맛있는밥집 고시뷔페,한식뷔페,5.0,0,https://place.map.kakao.com/1393766041,서울 관악구 신림로 86 지하,,070-8103-2095,서울대학교,37.4698515,126.9389761
335,커피나무 낙성대점,카페,2.0,3,https://place.map.kakao.com/914085037,서울 관악구 인헌길 74 1층,,02-882-8919,서울대학교,37.4721797,126.9665798
336,승승밀크티,카페,4.9,5,https://place.map.kakao.com/433762005,서울 관악구 대학길 31 1층,,02-325-7257,서울대학교,37.4692807,126.9378863
337,감나무집,한식,4.7,4,https://place.map.kakao.com/8142194,서울 관악구 관악로11길 20,,02-882-0077,서울대학교,37.477948,126.9510155
338,떡볶이참잘하는집 떡참 관악신림점,떡볶이,1.0,0,https://place.map.kakao.com/278585040,서울 관악구 서림길 119 102호,,02-877-4709,서울대학교,37.4713327,126.9404382
339,미남계 본점,치킨,4.6,3,https://place.map.kakao.com/935998025,서울 관악구 대학6길 10 1층,,02-885-1951,서울대학교,37.4689878,126.9371838
340,삼신,일본식주점,5.0,4,https://place.map.kakao.com/1276207906,서울 관악구 대학7길 2,,02-876-2003,서울대학교,37.4683481,126.937783
341,코젤다크하우스 샤로수길점,"호프,요리주점",4.0,30,https://place.map.kakao.com/1719002931,서울 관악구 관악로14길 70 1층,,02-876-7757,서울대학교,37.4782015,126.956336
342,커피에반하다 신림녹두거리점,커피전문점,3.7,5,https://place.map.kakao.com/491547751,서울 관악구 신림로19길 30,,,서울대학교,37.46904019999999,126.9356999
343,자부심,분식,2.3,0,https://place.map.kakao.com/21441608,서울 관악구 대학14길 11,,,서울대학교,37.4661402,126.9370478
344,미분당 샤로수길점,베트남음식,4.3,24,https://place.map.kakao.com/1457050445,서울 관악구 관악로14길 103,,,서울대학교,37.4778276,126.9580789
345,일로카페,카페,5.0,6,https://place.map.kakao.com/556385685,서울 관악구 관악로 125 서울대입구삼성아파트 101동 102호,,02-883-0125,서울대학교,37.4760454,126.9520857
346,알뜰수산 본점,회,3.6,31,https://place.map.kakao.com/16560165,서울 관악구 봉천로 614-1,,02-883-0095,서울대학교,37.4754463,126.9652776
347,한울칼국수,국수,3.4,26,https://place.map.kakao.com/14507282,서울 관악구 인헌6길 26,영업시간 매일 11:00 ~ 22:00,02-889-5554,서울대학교,37.4741112,126.9652078
348,카덴 연희본점,일식,3.3,176,https://place.map.kakao.com/1449183784,서울 서대문구 연희로 173 거화빌딩 1층,,02-3142-6362,연세대학교,37.5725326,126.935079
349,목란,중식,3.1,563,https://place.map.kakao.com/21359554,서울 서대문구 연희로15길 21,,02-732-0054,연세대학교,37.5683426,126.9304738
350,앤트러사이트 연희점,커피전문점,3.5,201,https://place.map.kakao.com/445165609,서울 서대문구 연희로 135,,02-332-7650,연세대학교,37.5696478,126.9328198
351,콘하스 연희점,카페,2.5,273,https://place.map.kakao.com/273114016,서울 서대문구 연희로27길 99,,02-325-0792,연세대학교,37.5702835,126.9321757
352,피터팬1978 본점,"제과,베이커리",4.1,95,https://place.map.kakao.com/15717572,서울 서대문구 증가로 10 연궁빌딩 1층,,02-336-4775,연세대학교,37.5693908,126.931704
353,연경 연희점,중화요리,3.0,184,https://place.map.kakao.com/1076717674,서울 서대문구 연희로 145,,02-333-6655,연세대학교,37.5705361,126.9336098
354,고미정,한정식,3.6,116,https://place.map.kakao.com/27352120,서울 서대문구 연희로26길 28,,02-324-0016,연세대학교,37.5726599,126.9370107
355,수빈,한정식,3.2,45,https://place.map.kakao.com/15953085,서울 서대문구 연희로25길 31-3,,02-307-9979,연세대학교,37.5718899,126.9343534
356,연희동칼국수 본점,국수,3.1,140,https://place.map.kakao.com/8503628,서울 서대문구 연희맛로 37,,02-333-3955,연세대학교,37.5681791,126.9307331
357,매뉴팩트커피 연희본점,카페,4.3,133,https://place.map.kakao.com/21542432,서울 서대문구 연희로11길 29 2층,,02-6406-8777,연세대학교,37.567758,126.9295981
358,시오 연희본점,일식집,3.3,97,https://place.map.kakao.com/27594107,서울 서대문구 연희로11가길 23 1층,,02-3144-6919,연세대학교,37.5671694,126.9286817
359,라이라이,중식,3.6,93,https://place.map.kakao.com/27305181,서울 서대문구 연희로15길 27,,,연세대학교,37.56854939999999,126.9304255
360,조은집,한정식,3.7,70,https://place.map.kakao.com/11831209,서울 서대문구 연희맛로 43,,02-323-8084,연세대학교,37.56853359999999,126.9310699
361,로덴드론,커피전문점,4.1,38,https://place.map.kakao.com/205823441,서울 서대문구 연희로25길 82,,02-332-2288,연세대학교,37.5701002,126.9322327
362,스타벅스 연희DT점,커피전문점,3.0,30,https://place.map.kakao.com/26571462,서울 서대문구 연희로 144,,1522-3232,연세대학교,37.5701185,126.9338591
363,녹원쌈밥,쌈밥,3.2,51,https://place.map.kakao.com/16904322,서울 서대문구 연희로25길 22,,02-336-9483,연세대학교,37.5724447,126.9341305
364,연희김밥 본점,분식,3.5,55,https://place.map.kakao.com/18521778,서울 서대문구 연희로11가길 2,,02-323-8090,연세대학교,37.5679567,126.9293541
365,이화원,중화요리,3.1,54,https://place.map.kakao.com/14511324,서울 서대문구 연희맛로 13,,02-334-1888,연세대학교,37.5665127,126.9290001
366,유우,일식,4.4,28,https://place.map.kakao.com/23991500,서울 서대문구 연희로26길 23 지하1층,,02-3144-2578,연세대학교,37.5726303,126.9371581
367,폴앤폴리나 연희동점,"제과,베이커리",4.3,58,https://place.map.kakao.com/17981297,서울 서대문구 연희로11길 56 1층,,02-333-0185,연세대학교,37.5688442,126.929055
368,월순철판동태찜 연희본점,"찌개,전골",4.5,57,https://place.map.kakao.com/16556460,서울 서대문구 연희맛로 17-14 1층,,02-325-1567,연세대학교,37.5671888,126.9290368
369,연희곰탕,곰탕,4.2,138,https://place.map.kakao.com/45834039,서울 서대문구 증가로 17,,02-336-1801,연세대학교,37.57931,126.9147538
370,시간이머무는홍차가게,카페,4.7,39,https://place.map.kakao.com/23446983,서울 서대문구 연희로16길 7-15,,070-4843-3541,연세대학교,37.5683103,126.9325842
371,에브리띵베이글,"제과,베이커리",3.7,135,https://place.map.kakao.com/768666442,서울 서대문구 연희로11길 29,,010-5588-5427,연세대학교,37.567758,126.9295981
372,식탁 하늬솔점,이탈리안,2.8,54,https://place.map.kakao.com/27485513,서울 서대문구 성산로 527 하늬솔빌딩 1층,,02-362-0777,연세대학교,37.5231914,127.0365459
373,이품,중화요리,3.5,45,https://place.map.kakao.com/9348308,서울 서대문구 연희로11길 20,,02-322-6172,연세대학교,37.567508,126.9300522
374,르솔레이,"제과,베이커리",4.3,110,https://place.map.kakao.com/1161755224,서울 서대문구 연희맛로 7-29 지하 1층,,0507-1315-6371,연세대학교,37.56632949999999,126.9279715
375,작은스페인,양식,2.3,96,https://place.map.kakao.com/26776693,서울 서대문구 연희로25길 37 1층,,02-322-8870,연세대학교,37.571722,126.934023
376,마우디,양식,3.2,115,https://place.map.kakao.com/171590084,서울 서대문구 연희로11길 18 1층,,02-6052-4522,연세대학교,37.5674491,126.9301187
377,효동각 본점,중화요리,2.9,19,https://place.map.kakao.com/26966311,서울 서대문구 연대동문길 24,,,연세대학교,37.5634694,126.9436395
378,호천식당,한식,3.1,57,https://place.map.kakao.com/799489991,서울 서대문구 연희로14길 5,,02-334-0749,연세대학교,37.5674353,126.9317794
379,푸어링아웃,카페,4.1,168,https://place.map.kakao.com/1980694762,서울 서대문구 연희로11나길 7-7,,,연세대학교,37.5672517,126.9281179
380,오향만두,중식,4.2,41,https://place.map.kakao.com/18657057,서울 서대문구 연희맛로 22,,02-323-3749,연세대학교,37.5668987,126.9301311
381,강수사,일식,3.4,5,https://place.map.kakao.com/8173078,서울 서대문구 연희로 157,,02-3141-4848,연세대학교,37.57132350000001,126.9341928
382,작은나폴리,이탈리안,2.9,69,https://place.map.kakao.com/24925090,서울 서대문구 증가로 13-9 2층,,02-306-8859,연세대학교,37.5690889,126.9311004
383,스시마쯔,"초밥,롤",3.8,24,https://place.map.kakao.com/854089661,서울 서대문구 연희로 166 1층,,02-3144-2129,연세대학교,37.5717736,126.9351453
384,복성각,중화요리,3.2,37,https://place.map.kakao.com/7892863,서울 서대문구 명물1길 24,,02-364-1522,연세대학교,37.5584288,126.9373872
385,맥널티커피팩토리,커피전문점,2.9,13,https://place.map.kakao.com/581457821,서울 서대문구 연희로 152 맥널티빌딩 1층,,02-332-0085,연세대학교,37.5706638,126.9342758
386,고르드,디저트카페,2.5,183,https://place.map.kakao.com/26409687,서울 서대문구 연세로 32 1~4층,,02-365-9566,연세대학교,37.5584749,126.9371104
387,신촌황소곱창 신촌본점,"곱창,막창",2.1,153,https://place.map.kakao.com/15847929,서울 서대문구 연세로9길 31 1층,,02-337-2640,연세대학교,37.5584257,126.9350512
388,포포브레드,"제과,베이커리",4.9,65,https://place.map.kakao.com/363670536,서울 서대문구 증가로 18,,02-332-2044,연세대학교,37.5699642,126.9312486
389,비하인드리메인,카페,3.5,52,https://place.map.kakao.com/2104602457,서울 서대문구 연희로11라길 10-6,,02-3141-7212,연세대학교,37.568358,126.9302902
390,파올로데마리아,이탈리안,3.6,52,https://place.map.kakao.com/1815812863,서울 서대문구 연희로26길 24,,02-599-9936,연세대학교,37.5727163,126.9368729
391,테일러커피 연남1호점,카페,3.8,194,https://place.map.kakao.com/27508963,서울 마포구 성미산로 189 1층,,02-326-0355,연세대학교,37.5630577,126.9263647
392,아웃백스테이크하우스 신촌점,패밀리레스토랑,3.9,97,https://place.map.kakao.com/7991188,서울 서대문구 연세로12길 33,,02-3147-1871,연세대학교,37.5590726,126.9388393
393,노아스로스팅 헤리티지점,카페,3.9,33,https://place.map.kakao.com/1142768556,서울 서대문구 연희로 160 1층,,02-3141-6356,연세대학교,37.5713968,126.9349321
394,수라면옥 연희점,냉면,3.5,10,https://place.map.kakao.com/1657202685,서울 서대문구 연희로25길 81,,02-336-2257,연세대학교,37.5700313,126.9326887
395,평택고여사집냉면,냉면,4.0,26,https://place.map.kakao.com/10161291,서울 서대문구 연희로 81-9 1층,,02-392-7461,연세대학교,37.5656374,126.9292481
396,일룸 엄마의서재,북카페,4.7,27,https://place.map.kakao.com/1555123471,서울 서대문구 연희로 148 1층,,02-322-1132,연세대학교,37.5702102,126.934134
397,미도인 신촌점,"스테이크,립",3.9,253,https://place.map.kakao.com/594421253,서울 서대문구 명물길 33 2층,,,연세대학교,37.5583569,126.9382111
398,또보겠지떡볶이집 신촌히어로점,떡볶이,4.3,198,https://place.map.kakao.com/27243051,서울 서대문구 연세로4길 19 2층,,,연세대학교,37.5573377,126.9377977
399,커피리브레 연남점,커피전문점,3.4,113,https://place.map.kakao.com/11553130,서울 마포구 성미산로 200,,02-334-0615,연세대학교,37.5621557,126.9269515
400,엠브로돈까스 신촌점,"돈까스,우동",3.8,77,https://place.map.kakao.com/243549280,서울 서대문구 명물길 26,,02-363-5241,연세대학교,37.557839,126.9382343
401,걸리부,중화요리,4.1,11,https://place.map.kakao.com/8186587,서울 서대문구 연희맛로 31 2층,,02-322-9998,연세대학교,37.5677818,126.930441
402,멘야산다이메 연희점,일본식라면,3.7,24,https://place.map.kakao.com/1284925021,서울 서대문구 연희로 81-5 평화빌딩 1층 2호,,02-336-4129,연세대학교,37.5655063,126.9294028
403,호밀밭,카페,4.2,113,https://place.map.kakao.com/19852273,서울 서대문구 신촌역로 43,,02-392-5345,연세대학교,37.5589121,126.9406332
404,탭스터,"호프,요리주점",4.7,19,https://place.map.kakao.com/1139437500,서울 서대문구 증가로 1 1층 103호,,070-7576-2448,연세대학교,37.5686274,126.9318779
405,그릭데이 이대점,디저트카페,3.5,46,https://place.map.kakao.com/577825774,서울 서대문구 이화여대길 88-21 2층,,02-363-9222,연세대학교,37.5595417,126.9439316
406,더양,"육류,고기",4.3,3,https://place.map.kakao.com/1689995074,서울 서대문구 연희맛로 36,,02-336-7389,연세대학교,37.5679412,126.9310251
407,카라멘야,일본식라면,4.2,189,https://place.map.kakao.com/1025832828,서울 서대문구 연세로7안길 34-1 1층,,0507-1320-6221,연세대학교,37.5581868,126.9348282
408,떡의미학,"떡,한과",3.9,5,https://place.map.kakao.com/845920532,서울 서대문구 연희로25길 72 1층,,02-324-3628,연세대학교,37.5705347,126.932651
409,비밀,"제과,베이커리",3.9,87,https://place.map.kakao.com/1581324681,서울 서대문구 이화여대7길 48 1층 101호,,02-313-0877,연세대학교,37.558508,126.9431029
410,로드샌드위치,샌드위치,4.1,17,https://place.map.kakao.com/11831420,서울 서대문구 연대동문길 45 1층,,02-363-4554,연세대학교,37.5643772,126.9443942
411,한림돈가,"육류,고기",4.0,75,https://place.map.kakao.com/27588088,서울 서대문구 연세로7안길 16-4,,02-338-6604,연세대학교,37.5582356,126.9360465
412,스타벅스 연대동문점,커피전문점,3.5,7,https://place.map.kakao.com/17127094,서울 서대문구 성산로 565 연세재단 Y빌딩,,1522-3232,연세대학교,37.6252952,127.0261504
413,쿳사,카페,4.8,43,https://place.map.kakao.com/705202577,서울 서대문구 증가로 48,,0507-1310-1977,연세대학교,37.5721413,126.9293757
414,스떼이끄300,"스테이크,립",3.5,37,https://place.map.kakao.com/811284010,서울 서대문구 명물1길 28 1층,,,연세대학교,37.5586019,126.9374006
415,연희커피,커피전문점,3.8,84,https://place.map.kakao.com/895804381,서울 서대문구 연희맛로 17-21,,,연세대학교,37.5665983,126.9287997
416,금별맥주,"호프,요리주점",3.7,21,https://place.map.kakao.com/1873432888,서울 서대문구 연세로11길 14,,02-365-7693,연세대학교,37.5590372,126.936009
417,프로토콜,커피전문점,3.6,16,https://place.map.kakao.com/33873746,서울 서대문구 연희로 109 2층,,010-7922-6159,연세대학교,37.56775409999999,126.9313583
418,완차이,중화요리,3.9,35,https://place.map.kakao.com/10621045,서울 서대문구 명물길 50-7,,02-392-0302,연세대학교,37.5586817,126.939362
419,제니스카페,이탈리안,3.9,37,https://place.map.kakao.com/18906610,서울 서대문구 연희맛로 17-49,,02-3789-7817,연세대학교,37.5669704,126.9288939
420,연교,중화요리,3.9,215,https://place.map.kakao.com/934767425,서울 마포구 연희로1길 65 1층,,02-333-4561,연세대학교,37.5615663,126.9266476
421,미미램양꼬치,양꼬치,3.6,152,https://place.map.kakao.com/780523213,서울 마포구 성미산로 196 상암빌딩 1층,,02-6339-7666,연세대학교,37.5760322,126.8946718
422,연희녹두삼계탕,삼계탕,3.7,8,https://place.map.kakao.com/16735266,서울 서대문구 연희맛로 43-1,,02-323-3208,연세대학교,37.5686706,126.93118
423,오복수산 연남점,일식,3.3,117,https://place.map.kakao.com/1879942970,서울 마포구 성미산로 198,,010-3357-8051,연세대학교,37.5623371,126.9266909
424,공복,"육류,고기",3.5,97,https://place.map.kakao.com/1254856376,서울 서대문구 연세로12길 23 1층,,02-312-6692,연세대학교,37.5590407,126.9383032
425,레이어드 연남점,디저트카페,2.7,770,https://place.map.kakao.com/502958473,서울 마포구 성미산로 161-4,,,연세대학교,37.5649551,126.9241766
426,미스터서왕만두,분식,4.4,59,https://place.map.kakao.com/26786725,서울 서대문구 신촌역로 16,,02-312-8869,연세대학교,37.558031,126.9431674
427,쉐프수,"스테이크,립",4.6,13,https://place.map.kakao.com/1465996877,"서울 서대문구 연희맛로 7-8 2,3층",,02-338-1229,연세대학교,37.5663712,126.9284984
428,소신이쏘,갈비,3.9,192,https://place.map.kakao.com/26522526,서울 서대문구 연세로5가길 19 1층,,02-324-3245,연세대학교,37.5571514,126.9355254
429,정통집,"육류,고기",1.9,57,https://place.map.kakao.com/398715963,서울 서대문구 연세로9길 7 1층,,02-3144-7848,연세대학교,37.5584165,126.9364242
430,연희38애비뉴,카페,4.8,39,https://place.map.kakao.com/2045036495,서울 서대문구 연희맛로 38 인준빌딩 지하1층,,02-332-3801,연세대학교,37.5681379,126.9311559
431,현명식탁,이탈리안,4.1,196,https://place.map.kakao.com/1227036908,서울 서대문구 명물길 32 5층,,02-2088-1229,연세대학교,37.557984,126.9384269
432,카쿠시타,일식,4.3,183,https://place.map.kakao.com/1317927211,서울 마포구 동교로38길 33-15 지하1층,,070-4187-8787,연세대학교,37.56181280000001,126.9261064
433,꼬숑돈까스,"돈까스,우동",3.5,112,https://place.map.kakao.com/27144649,서울 서대문구 명물1길 2 1층,,,연세대학교,37.55791300000001,126.937347
434,백암왕순대 연희동본점,순대,2.6,7,https://place.map.kakao.com/7885867,서울 서대문구 증가로 13-6,,02-337-7894,연세대학교,37.569355,126.9310343
435,백년추어탕 연희본점,추어,4.6,7,https://place.map.kakao.com/16619517,서울 서대문구 증가로 9,,02-332-8059,연세대학교,37.5691941,126.9313785
436,포가,중화요리,4.2,182,https://place.map.kakao.com/1819203967,서울 마포구 성미산로 190-4 2층,,,연세대학교,37.5628104,126.9260287
437,테일러커피 연남2호점,커피전문점,4.3,157,https://place.map.kakao.com/1840810990,"서울 마포구 성미산로 187 1, 2층",,02-3143-0355,연세대학교,37.5632336,126.9261969
438,에이투지카페,커피전문점,3.6,81,https://place.map.kakao.com/13594462,서울 서대문구 연세로4길 29,,02-313-7523,연세대학교,37.5576594,126.9383002
439,정육면체,퓨전요리,3.6,268,https://place.map.kakao.com/1705674698,서울 서대문구 연세로5다길 22-8 1층 101호,,070-4179-3819,연세대학교,37.5567725,126.9345699
440,뱅센느,"제과,베이커리",3.9,26,https://place.map.kakao.com/15726085,서울 서대문구 연희로11길 41,,02-336-3279,연세대학교,37.5682399,126.9291825
441,강성은명과 연희본점,"제과,베이커리",4.2,3,https://place.map.kakao.com/460365911,"서울 서대문구 연희로25길 29 1층, 지하1층",,02-333-2622,연세대학교,37.5719634,126.9342177
442,콜드레시피,아이스크림,4.2,52,https://place.map.kakao.com/27238675,서울 서대문구 연희로11라길 2 1층,,02-323-1550,연세대학교,37.5679911,126.9296649
443,고삼이 신촌점,"해물,생선",4.4,72,https://place.map.kakao.com/17505297,서울 서대문구 연세로7안길 38,,02-324-1403,연세대학교,37.55828109999999,126.9346978
444,하하,중화요리,3.4,273,https://place.map.kakao.com/13727108,서울 마포구 동교로 263,,02-337-0211,연세대학교,37.56321399999999,126.9251276
445,마더린러베이글,"제과,베이커리",3.7,145,https://place.map.kakao.com/27562577,서울 서대문구 이화여대5길 5 1층,,070-7758-3030,연세대학교,37.558275,126.9453586
446,센트그릴,"스테이크,립",4.4,39,https://place.map.kakao.com/845008069,서울 서대문구 연희로 89-3,,,연세대학교,37.5661476,126.9298724
447,디폴트밸류,카페,4.1,76,https://place.map.kakao.com/550496093,서울 서대문구 성산로 333,,02-2293-3889,연세대학교,37.5661525,126.9273379
448,연희대공원,테마카페,2.8,46,https://place.map.kakao.com/473697180,서울 서대문구 연희로11가길 42,,,연세대학교,37.5668247,126.9277358
449,툭툭누들타이,태국음식,3.4,342,https://place.map.kakao.com/19925752,"서울 마포구 성미산로 161-8 지하1층, 1, 2층",,070-4407-5130,연세대학교,37.56514740000001,126.9240143
450,향미,중화요리,3.3,82,https://place.map.kakao.com/642479510,서울 마포구 성미산로 193,,02-333-2943,연세대학교,37.562858,126.9266992
451,라화쿵부 신촌점,중화요리,2.1,166,https://place.map.kakao.com/357243716,서울 서대문구 연세로11길 8,,02-3144-7807,연세대학교,37.5590051,126.9364532
452,카페스콘,카페,3.4,480,https://place.map.kakao.com/975758911,서울 마포구 성미산로 172,,02-323-7076,연세대학교,37.5640582,126.9247272
453,연희동오븐,"제과,베이커리",4.4,97,https://place.map.kakao.com/1126397301,서울 서대문구 연희로11나길 7-5 지하 1층,,,연세대학교,37.5673331,126.9282549
454,이빠네마그릴,"멕시칸,브라질",4.2,97,https://place.map.kakao.com/27560694,서울 서대문구 연세로4길 6 2층,,02-365-6118,연세대학교,37.5568831,126.9373424
455,스타벅스 연세종합관점,커피전문점,3.4,4,https://place.map.kakao.com/7961931,서울 서대문구 연세로 50-1,영업시간 매일 07:00 ~ 22:00,1522-3232,연세대학교,37.564089,126.9389809
456,대포찜닭,닭요리,4.4,117,https://place.map.kakao.com/1715759706,서울 서대문구 연세로 27-1 대성빌딩 3층,영업시간 매일 11:00 ~ 22:00,02-325-6633,연세대학교,37.5580808,126.9366666
457,포석정,"호프,요리주점",3.8,39,https://place.map.kakao.com/8571672,서울 서대문구 연세로11길 25,매일 17:00 ~ 03:00,02-332-5538,연세대학교,37.558753,126.9354709
458,에노테카오토,이탈리안,3.5,38,https://place.map.kakao.com/26966231,서울 서대문구 연희맛로 17-18,영업시간 매일 12:00 ~ 22:00 · 브레이크타임 매일 15:00 ~ 18:00,02-336-9958,연세대학교,37.5673433,126.9288852
459,역전할머니맥주 서울신촌점,"호프,요리주점",2.6,72,https://place.map.kakao.com/1078291399,서울 서대문구 연세로7길 25,,02-334-4569,연세대학교,37.5574363,126.9353391
460,진보,중화요리,2.7,13,https://place.map.kakao.com/16327888,서울 서대문구 연희맛로 9,영업시간 매일 11:30 ~ 21:30,02-338-2897,연세대학교,37.56629650000001,126.9288017
461,연희동양꼬치,양꼬치,4.4,12,https://place.map.kakao.com/551515973,서울 서대문구 연희로 81-5 1층,,02-336-9762,연세대학교,37.5655063,126.9294028
462,라플로레종,디저트카페,3.4,112,https://place.map.kakao.com/1948873687,서울 서대문구 연세로12길 37-3 2층,영업시간 매일 12:00 ~ 21:00,010-3916-2409,연세대학교,37.5591941,126.9389247
463,유자유김치떡볶이 신촌점,떡볶이,4.1,169,https://place.map.kakao.com/104532017,서울 서대문구 연세로11길 22,매일 12:00 ~ 03:00,02-332-9301,연세대학교,37.5589859,126.9356204
464,바네스치킨&버거,치킨,5.0,6,https://place.map.kakao.com/20174523,서울 서대문구 증가로 14 1층,"영업시간 월,화,수,목,토,일 13:00 ~ 24:00",02-336-9296,연세대학교,37.5696721,126.9314204
465,카페연희동,카페,4.1,62,https://place.map.kakao.com/1760477219,서울 서대문구 연희맛로 38 1층,영업시간 매일 10:00 ~ 22:00,070-4007-9992,연세대학교,37.5681379,126.9311559
466,로얄싸롱,일식,4.0,80,https://place.map.kakao.com/1720411481,서울 서대문구 연희로11가길 43,"영업시간 월,화,목,금,토,일 08:30 ~ 20:30",02-6956-2112,연세대학교,37.5665393,126.9278587
467,카페클로이인패리스,디저트카페,4.7,176,https://place.map.kakao.com/745327768,서울 마포구 성미산로 190-3 1층,영업시간 화~일 11:00 ~ 22:00,,연세대학교,37.5626855,126.9261573
468,고래식당 연희점,"해물,생선",4.6,6,https://place.map.kakao.com/484180175,서울 서대문구 연희맛로 32 1층 102호,,02-336-6098,연세대학교,37.5674867,126.9307792
469,컬러드빈,카페,4.6,2,https://place.map.kakao.com/1814613508,서울 서대문구 연희로11가길 8-8,,,연세대학교,37.56809399999999,126.9289956
470,선수사,일식집,3.8,2,https://place.map.kakao.com/16376949,서울 서대문구 연희로 177,,02-3141-6200,연세대학교,37.5729818,126.9352367
471,멕시칸식당베르데,"멕시칸,브라질",4.3,316,https://place.map.kakao.com/1146767160,서울 마포구 동교로 262-6 1층,,070-8726-7564,연세대학교,37.562802,126.925395
472,타코벨 신촌점,"멕시칸,브라질",3.1,27,https://place.map.kakao.com/200124855,서울 서대문구 연세로 26-1,,,연세대학교,37.557955,126.9371042
473,쥬쥬펫,애견카페,3.4,4,https://place.map.kakao.com/1981767063,서울 서대문구 증가로 13-9,,0507-1314-0028,연세대학교,37.5690889,126.9311004
474,왕왕,중화요리,4.2,15,https://place.map.kakao.com/587938473,서울 서대문구 연희맛로 27 2층,,02-333-5188,연세대학교,37.56759590000001,126.9303045
475,자정,"호프,요리주점",4.7,27,https://place.map.kakao.com/1433894754,서울 서대문구 증가로 24 2층,,,연세대학교,37.5703507,126.9308435
476,올레무스,카페,4.4,81,https://place.map.kakao.com/961299046,서울 서대문구 연희로5길 58 1층,,,연세대학교,37.5591894,126.9262459
477,부추곱창,"곱창,막창",4.3,62,https://place.map.kakao.com/1487480541,서울 서대문구 연세로5나길 30-16 1층,,02-336-8334,연세대학교,37.5575365,126.9349608
478,텐동미세기,일식,3.2,54,https://place.map.kakao.com/984865201,서울 서대문구 연세로13길 7 한성빌딩 1층,,02-332-2146,연세대학교,37.5592016,126.9364182
479,그레인,카페,4.3,129,https://place.map.kakao.com/1450314310,서울 마포구 동교로46길 23,,,연세대학교,37.5622869,126.9260306
480,방탈출 룸익스케이프 화이트점,테마카페,4.3,45,https://place.map.kakao.com/1542251042,서울 서대문구 명물길 66 2층,,02-393-5689,연세대학교,37.5588357,126.9398556
481,와플잇업 이대2호점,디저트카페,4.2,42,https://place.map.kakao.com/17153633,서울 서대문구 이화여대3길 42-19,,070-4410-2829,연세대학교,37.5582078,126.9432894
482,히메지 2호점,일식,3.1,25,https://place.map.kakao.com/27469330,서울 서대문구 연희로11길 41,,,연세대학교,37.5682399,126.9291825
483,카페티아라,양식,4.8,21,https://place.map.kakao.com/780883461,서울 서대문구 성산로 553 동문빌딩 2층,,02-313-4268,연세대학교,37.5655066,126.9457783
484,유닭스토리 신촌점,닭요리,3.7,117,https://place.map.kakao.com/19243601,서울 서대문구 연세로4길 7 1층,,02-6012-9563,연세대학교,37.5570473,126.9373627
485,오늘그대와,양식,3.5,403,https://place.map.kakao.com/644643256,서울 마포구 동교로 262-13 1층,,,연세대학교,37.5626341,126.9257641
486,연어초밥,"초밥,롤",4.8,72,https://place.map.kakao.com/1249793784,서울 서대문구 연세로2길 94 1층 3호,,02-313-2611,연세대학교,37.5569918,126.9419201
487,뉴타운,"호프,요리주점",4.2,42,https://place.map.kakao.com/1702788673,서울 서대문구 연세로12길 27 1층,,,연세대학교,37.55906,126.9385474
488,커피빈 연대동문회관점,커피전문점,4.0,20,https://place.map.kakao.com/1019252103,서울 서대문구 성산로 515 B동 1~2층,,02-362-8301,연세대학교,37.5630488,126.9432618
489,밀스,양식,3.1,39,https://place.map.kakao.com/24788105,서울 서대문구 연희로11가길 3,,02-6203-4119,연세대학교,37.5678499,126.9294994
490,고냉지,"찌개,전골",3.9,93,https://place.map.kakao.com/15863783,서울 서대문구 연세로2마길 30,,02-313-0845,연세대학교,37.5584729,126.9421968
491,사모님돈가스,"돈까스,우동",4.8,18,https://place.map.kakao.com/1926208251,서울 서대문구 연희로11가길 39 2층,,02-332-2204,연세대학교,37.5666972,126.9280817
492,맥도날드 연세대점,패스트푸드,2.8,17,https://place.map.kakao.com/18606733,서울 서대문구 연세로 33,,070-7017-6475,연세대학교,37.5585515,126.9367086
493,로프트,양식,3.7,5,https://place.map.kakao.com/12037696,서울 서대문구 연대동문길 18 공간9빌딩 6층,,02-393-3181,연세대학교,37.5633065,126.9435626
494,마녀주방 신촌점,양식,4.4,131,https://place.map.kakao.com/160076132,서울 서대문구 명물길 21 지하1층,,,연세대학교,37.5580459,126.9376971
495,베어스덴,디저트카페,3.8,63,https://place.map.kakao.com/838351158,"서울 서대문구 연희로4길 10 1,2층",,02-6449-0204,연세대학교,37.561581,126.9277657
496,규자카야모토,일본식주점,3.3,164,https://place.map.kakao.com/26643436,서울 마포구 동교로 276 2층,,,연세대학교,37.5637919,126.9262568
497,배바위양곱창,"곱창,막창",4.5,25,https://place.map.kakao.com/1148897573,서울 서대문구 연세로7안길 42 유림빌딩 1층,,02-337-9993,연세대학교,37.5583302,126.9345489
498,컨시어지커피,카페,4.9,13,https://place.map.kakao.com/578210156,서울 서대문구 증가로 1 1층,,02-332-5335,연세대학교,37.5686274,126.9318779
499,평안루,중화요리,3.6,3,https://place.map.kakao.com/22379074,서울 서대문구 연희로 151 2층,,02-336-8586,연세대학교,37.5709363,126.933921
500,뉴욕비앤씨 신촌점,양식,3.5,40,https://place.map.kakao.com/24451919,서울 서대문구 연세로12길 39,,070-7556-9863,연세대학교,37.5591598,126.9392206
501,야키토리묵,일본식주점,4.3,97,https://place.map.kakao.com/677911355,서울 마포구 성미산로 165-1 1층,,070-8835-3433,연세대학교,37.5646225,126.924555
502,김광석신촌칼국수 이대직영점,국수,3.3,68,https://place.map.kakao.com/984465319,서울 서대문구 명물길 70 1층,,02-312-0999,연세대학교,37.5588248,126.9400516
503,페퍼민트패티,햄버거,4.4,66,https://place.map.kakao.com/1709441718,서울 서대문구 연희로11가길 53 지하 1층 1호,,02-324-9333,연세대학교,37.5662398,126.927425
504,김판석초밥,"초밥,롤",3.8,79,https://place.map.kakao.com/397566370,서울 서대문구 연세로9길 37 102호,,02-333-2416,연세대학교,37.5584935,126.934568
505,압구정샤브샤브 신촌점,샤브샤브,4.3,4,https://place.map.kakao.com/9267299,서울 서대문구 연대동문길 26 4층,,02-393-2205,연세대학교,37.5635455,126.9437924
506,소디스커피,커피전문점,4.6,62,https://place.map.kakao.com/945051806,서울 서대문구 연희로 83,,02-336-9976,연세대학교,37.5657719,126.9297702
507,위샐러듀 이대점,양식,4.8,27,https://place.map.kakao.com/2052782184,서울 서대문구 이화여대길 52-31 1층,,02-363-0113,연세대학교,37.5594145,126.9447234
508,연희별밥,한식,3.6,15,https://place.map.kakao.com/1649616459,서울 서대문구 연희로15길 31,,02-336-0866,연세대학교,37.5671033,126.9296369
509,망넛이네,"제과,베이커리",5.0,28,https://place.map.kakao.com/1737184200,서울 서대문구 동교로 296 1~3층,,1566-7231,연세대학교,37.5651112,126.9278588
510,한우명가,"육류,고기",3.8,45,https://place.map.kakao.com/12691531,서울 서대문구 연희로 46-1,,02-3143-6832,연세대학교,37.5626805,126.9280895
511,주반여름,퓨전요리,4.4,15,https://place.map.kakao.com/2049176695,서울 서대문구 연희맛로 17-13,,,연세대학교,37.5667378,126.9290829
512,명륜진사갈비 서울신촌점,갈비,2.0,39,https://place.map.kakao.com/33280372,서울 서대문구 명물길 63,,02-313-0522,연세대학교,37.5591987,126.939546
513,미미에토,카페,5.0,52,https://place.map.kakao.com/1714083458,서울 서대문구 연희로 153-4,,,연세대학교,37.571228,126.9339927
514,청년국수,국수,4.0,21,https://place.map.kakao.com/27354956,서울 서대문구 연세로12길 23,,02-313-1125,연세대학교,37.5590407,126.9383032
515,카페 129-11,카페,3.8,14,https://place.map.kakao.com/15589117,서울 서대문구 연희로11가길 20,,02-3144-0437,연세대학교,37.5674716,126.9286185
516,카페공명,"제과,베이커리",4.0,229,https://place.map.kakao.com/1797970569,서울 마포구 연희로 11 한국특허정보원빌딩 1층,,070-8869-6304,연세대학교,37.5598958,126.9263081
517,아워온즈,커피전문점,4.3,11,https://place.map.kakao.com/1024843324,"서울 서대문구 연희맛로 45 지하1층, 1,2층",,02-333-3322,연세대학교,37.5688266,126.9311834
518,오랑지,카페,4.7,234,https://place.map.kakao.com/1007372949,서울 마포구 동교로38길 13 2층,,,연세대학교,37.562007,126.924974
519,알레스구떼,"제과,베이커리",4.7,8,https://place.map.kakao.com/528652545,서울 서대문구 연희로26길 4,,02-6402-1298,연세대학교,37.5728484,126.9358307
520,메가커피 연희점,커피전문점,1.4,3,https://place.map.kakao.com/639745046,"서울 서대문구 연희로 98 1, 2 층",,02-332-6771,연세대학교,37.56657939999999,126.9309869
521,다엔조,이탈리안,4.1,284,https://place.map.kakao.com/1178354796,서울 마포구 연희로1길 59-2 1층,,02-336-0281,연세대학교,37.5615728,126.9264675
522,투고샐러드 신촌점,도시락,3.6,26,https://place.map.kakao.com/237759824,서울 서대문구 연세로12길 30,,02-393-2290,연세대학교,37.5589004,126.9386289
523,하이웨스트,카페,2.8,244,https://place.map.kakao.com/1703055634,서울 마포구 성미산로 167-9,,,연세대학교,37.5645316,126.9250634
524,부탄츄 신촌점,일본식라면,3.4,130,https://place.map.kakao.com/21572456,서울 서대문구 연세로5길 26-9,,02-3144-6604,연세대학교,37.55664549999999,126.9350708
525,야식포차,실내포장마차,3.0,21,https://place.map.kakao.com/20606827,서울 서대문구 성산로 337,,,연세대학교,37.5659333,126.9278029
526,작당모의,카페,3.2,327,https://place.map.kakao.com/500916307,서울 마포구 동교로32길 19 1층,,070-8838-3815,연세대학교,37.5605781,126.9253805
527,오디너리핏,카페,3.8,115,https://place.map.kakao.com/211317419,서울 서대문구 연희로11가길 48-23 캐비넷클럽 3층,,,연세대학교,37.5670752,126.9269455
528,씨스루 홍대연남점,디저트카페,4.2,197,https://place.map.kakao.com/717607875,서울 마포구 동교로 266-6 1층,,,연세대학교,37.5630303,126.9255366
529,피자헛 연희본점,피자,3.7,1,https://place.map.kakao.com/8127892,서울 서대문구 연희로 166 예림빌딩 1층,,02-3141-4654,연세대학교,37.5789583,126.9357358
530,코블러연희,칵테일바,5.0,4,https://place.map.kakao.com/1109182399,서울 서대문구 연희맛로 31-9 1층,,010-4045-6421,연세대학교,37.56810979999999,126.9301443
531,민스키친 연희점,한식,3.3,8,https://place.map.kakao.com/13331115,서울 서대문구 연희맛로 7,,02-324-5511,연세대학교,37.566234,126.928669
532,소문난집,"육류,고기",4.2,51,https://place.map.kakao.com/7952101,서울 서대문구 연세로7길 38,,02-336-1922,연세대학교,37.5578533,126.9348148
533,샐러디 연세대점,샐러드,2.3,5,https://place.map.kakao.com/27168490,서울 서대문구 연세로 50 지하1층,,02-312-8696,연세대학교,37.565784,126.938572
534,착한돼지 신촌점,고기뷔페,3.0,4,https://place.map.kakao.com/19533306,서울 서대문구 명물길 37 2층,,02-363-4800,연세대학교,37.5584944,126.9382782
535,옥루몽 신촌본점,디저트카페,4.1,16,https://place.map.kakao.com/19645541,서울 서대문구 연대동문길 18 LOFT 1층,,02-312-0015,연세대학교,37.5633065,126.9435626
536,화로상회 신촌점,"육류,고기",4.4,31,https://place.map.kakao.com/1218437952,서울 서대문구 명물길 62 1층,,02-363-2292,연세대학교,37.5587125,126.9396842
537,도토리칼국수,국수,4.7,86,https://place.map.kakao.com/15186433,서울 서대문구 명물길 27-19,,02-704-2588,연세대학교,37.55875109999999,126.9381591
538,닥터로빈 이대점,양식,4.3,29,https://place.map.kakao.com/13076390,서울 서대문구 대현동 11-1 이화여대캠퍼스 ECC 지하 4층,,02-363-3101,연세대학교,37.5609634,126.9463858
539,타코로코,"멕시칸,브라질",4.2,42,https://place.map.kakao.com/26524405,서울 서대문구 연세로7안길 37 1층,,02-333-6469,연세대학교,37.5580731,126.934617
540,가장맛있는곱창 부추곱창 신촌점,"곱창,막창",3.6,104,https://place.map.kakao.com/25778900,서울 서대문구 연세로5가길 29,,02-336-8333,연세대학교,37.5571575,126.9349922
541,밀플랜비 연세대점,패스트푸드,3.6,8,https://place.map.kakao.com/1478253877,서울 서대문구 연희로10길 80 1층,,02-3144-0932,연세대학교,37.5637363,126.9334441
542,떼뮤즐렛,와인바,4.5,15,https://place.map.kakao.com/1673114245,서울 서대문구 연희맛로 24 2층,,0507-1307-6316,연세대학교,37.5668232,126.9303438
543,영미김밥,분식,4.6,21,https://place.map.kakao.com/1754051041,서울 서대문구 신촌역로 21 1층,,02-6081-3314,연세대학교,37.55860620000001,126.9424949
544,네시사분,디저트카페,4.6,95,https://place.map.kakao.com/1925445486,서울 마포구 성미산로 190-8 1층,,02-6405-3877,연세대학교,37.56269,126.9258674
545,아건 이대점,인도음식,4.4,113,https://place.map.kakao.com/12428606,서울 서대문구 이화여대길 63 2층,,02-364-8771,연세대학교,37.5590252,126.9449134
546,연어롭다,"해물,생선",3.7,455,https://place.map.kakao.com/1689615887,서울 마포구 동교로38길 42 지하1층,,02-324-8300,연세대학교,37.5610177,126.9256639
547,꽃피다이화다방,카페,4.6,32,https://place.map.kakao.com/27494928,서울 서대문구 이화여대길 75,,02-313-1905,연세대학교,37.5589673,126.9442871
548,캐틀앤비 연희점,디저트카페,1.0,15,https://place.map.kakao.com/901230766,"서울 서대문구 연희로25길 95 1, 2층",,,연세대학교,37.5694956,126.9322345
549,갓잇 연남점,"멕시칸,브라질",4.1,173,https://place.map.kakao.com/607192266,서울 마포구 성미산로 161-13 1층,,,연세대학교,37.5652046,126.9235697
550,라본느타르트,"제과,베이커리",4.0,5,https://place.map.kakao.com/7850862,서울 서대문구 성산로 543 국제빌딩 1층,,02-393-1117,연세대학교,37.5753102,126.9068373
551,연희양과점,"제과,베이커리",3.9,61,https://place.map.kakao.com/1108185588,서울 서대문구 연희로11가길 56,,02-336-1156,연세대학교,37.5662864,126.92719
552,솔리드웍스 아이스크림,아이스크림,4.3,52,https://place.map.kakao.com/27139501,서울 서대문구 이화여대길 88-3,,070-4795-8437,연세대학교,37.5592431,126.9434842
553,세양수산 아현점,회,3.7,0,https://place.map.kakao.com/9132533,서울 서대문구 증가로 25 1층,,02-393-6391,연세대학교,37.5703431,126.9303976
554,롯지190,카페,4.6,61,https://place.map.kakao.com/569185007,서울 서대문구 홍제천로 190 1층,,,연세대학교,37.5786731,126.9338866
555,가화만사성,중화요리,2.5,123,https://place.map.kakao.com/1536467186,서울 서대문구 연세로5가길 1 2층,,02-3142-6171,연세대학교,37.5570105,126.9360854
556,파리바게뜨 연대이화점,"제과,베이커리",3.1,1,https://place.map.kakao.com/21244021,서울 서대문구 성산로 523 1층,,02-363-8289,연세대학교,37.5634364,126.9438788
557,후지산,일식집,4.2,1,https://place.map.kakao.com/9629524,서울 서대문구 연희로 79 1층,,02-324-0191,연세대학교,37.5654475,126.9295677
558,얼스어스,카페,3.8,288,https://place.map.kakao.com/111850276,서울 마포구 성미산로 150,,,연세대학교,37.5641006,126.9232427
559,신촌돈부리모노,퓨전일식,2.8,112,https://place.map.kakao.com/12999212,서울 서대문구 연세로4길 46,,02-392-8231,연세대학교,37.5579307,126.9390139
560,라멘81번옥 신촌점,일본식라면,4.2,15,https://place.map.kakao.com/1662869928,서울 서대문구 신촌역로 16 1층,,02-313-2232,연세대학교,37.558031,126.9431674
561,신촌양꼬치,양꼬치,3.8,83,https://place.map.kakao.com/13595450,서울 서대문구 연세로9길 22,,02-322-8199,연세대학교,37.5585689,126.9356343
562,아파트,"호프,요리주점",5.0,0,https://place.map.kakao.com/1664785549,서울 서대문구 연희로 153 1호,,010-4809-0063,연세대학교,37.5711324,126.934088
563,기꾸스시,"초밥,롤",3.6,88,https://place.map.kakao.com/21236405,서울 서대문구 연세로5다길 35,,02-324-5356,연세대학교,37.556792,126.933534
564,화가와요리사 이대후문점,"돈까스,우동",4.2,5,https://place.map.kakao.com/13691522,서울 서대문구 성산로 539,,02-364-1970,연세대학교,37.5644061,126.9450118
565,신촌영양센터,삼계탕,3.4,49,https://place.map.kakao.com/12441959,서울 서대문구 연세로4길 34,,02-312-5460,연세대학교,37.5575732,126.9385391
566,더라스트오더,이탈리안,5.0,8,https://place.map.kakao.com/1618098943,서울 서대문구 연희로 195,,02-6396-4141,연세대학교,37.5743727,126.9352033
567,히우카우,태국음식,4.0,32,https://place.map.kakao.com/1089110960,서울 서대문구 연세로4길 61 1층,,02-308-5111,연세대학교,37.5585209,126.9395137
568,피터팬,"제과,베이커리",3.7,3,https://place.map.kakao.com/921034789,서울 서대문구 연희맛로 23 사러가쇼핑센터 1층,,,연세대학교,37.5670709,126.9296819
569,도미노피자 연희점,피자,1.6,4,https://place.map.kakao.com/7834586,서울 서대문구 연희로 95 1층,,02-326-3083,연세대학교,37.5665706,126.9304153
570,신촌해물칼국수,국수,4.3,93,https://place.map.kakao.com/835699876,서울 서대문구 신촌로 125 2층,,02-363-1553,연세대학교,37.5562668,126.9397483
571,가야가야 이대점,일본식라면,2.4,156,https://place.map.kakao.com/21395214,서울 서대문구 이화여대5길 7-3,,02-363-7877,연세대학교,37.5581489,126.945366
572,쿄라멘,일본식라면,4.2,71,https://place.map.kakao.com/887102975,서울 마포구 동교로46길 25 지층,,02-6338-8043,연세대학교,37.5622772,126.9261507
573,군자대한곱창 신촌점,"곱창,막창",3.8,74,https://place.map.kakao.com/1199637096,"서울 서대문구 연세로5나길 8 1,2층",,02-6378-0197,연세대학교,37.5570711,126.9358129
574,연주방,"호프,요리주점",3.8,121,https://place.map.kakao.com/44763750,서울 마포구 동교로46길 7,,070-7724-4026,연세대학교,37.5626708,126.9253436
575,소바야린,"돈까스,우동",4.1,41,https://place.map.kakao.com/399707537,서울 서대문구 이화여대3길 10 1층,,02-312-0703,연세대학교,37.5580534,126.9451704
576,지호한방삼계탕 연희점,닭요리,1.0,5,https://place.map.kakao.com/9434595,서울 서대문구 연희로25길 10,,02-385-5758,연세대학교,37.5728597,126.9347845
577,개성만두 궁 연희점,한식,3.5,11,https://place.map.kakao.com/723613681,서울 서대문구 연희맛로 23 사러가쇼핑센터 2층,,02-332-6147,연세대학교,37.5670709,126.9296819
578,초가집 삼겹살좋아,삼겹살,4.6,4,https://place.map.kakao.com/20560095,서울 서대문구 연희로 90-1 1층,,,연세대학교,37.5660355,126.9305237
579,리히트케이크,"제과,베이커리",3.9,75,https://place.map.kakao.com/26426453,서울 서대문구 연희로4길 10 이구삼동베이커리 반지하,,02-323-0258,연세대학교,37.561581,126.9277657
580,하노이의아침 연희점,동남아음식,3.6,31,https://place.map.kakao.com/13556440,서울 서대문구 연희맛로 10,,02-323-5320,연세대학교,37.5660327,126.9290228
581,래핑폭스,카페,3.5,24,https://place.map.kakao.com/855786945,서울 서대문구 연희로11나길 5 1층,,02-6401-2999,연세대학교,37.5674462,126.9283064
582,벤치커피스튜디오,카페,4.8,78,https://place.map.kakao.com/1199276033,서울 서대문구 연세로2마길 14 2층,,02-365-5999,연세대학교,37.5577662,126.9422747
583,춘천집닭갈비막국수,닭요리,3.4,42,https://place.map.kakao.com/1036334993,서울 서대문구 연세로5가길 1,,02-325-2361,연세대학교,37.5570105,126.9360854
584,미분당 신촌2호점,베트남음식,3.8,140,https://place.map.kakao.com/1985785355,서울 서대문구 연세로5길 26-7,,02-3141-9494,연세대학교,37.5565711,126.935219
585,스시올리지,"초밥,롤",4.4,51,https://place.map.kakao.com/1492824443,서울 마포구 동교로 266-11,,02-3144-2340,연세대학교,37.5629034,126.9259504
586,어나더룸 연남,카페,4.0,158,https://place.map.kakao.com/1139651943,서울 마포구 성미산로29안길 19-4 1층,,010-5134-1306,연세대학교,37.56551590000001,126.9233174
587,행복감,디저트카페,4.6,56,https://place.map.kakao.com/1416534534,서울 서대문구 연희로11가길 51 1층,,02-6052-5380,연세대학교,37.5663048,126.9275361
588,란주탕슉,중화요리,3.1,109,https://place.map.kakao.com/22578226,서울 서대문구 이화여대2가길 18,,,연세대학교,37.5581228,126.9462729
589,장도리곰탕 연희점,곰탕,3.9,1,https://place.map.kakao.com/18040529,서울 서대문구 연희로25길 27,,,연세대학교,37.57204249999999,126.9342935
590,레이씨,한식,5.0,60,https://place.map.kakao.com/1113910028,서울 서대문구 연희맛로 17-14 2층,,010-3115-4390,연세대학교,37.5671888,126.9290368
591,03인앤아웃,샌드위치,4.3,16,https://place.map.kakao.com/1164202906,서울 서대문구 연희로11길 57,,02-6369-1672,연세대학교,37.5688231,126.9287191
592,홍대개미 신촌점,퓨전일식,2.4,36,https://place.map.kakao.com/296308632,서울 서대문구 연세로 18 2층,,02-312-7531,연세대학교,37.5571262,126.9371239
593,1987피자,피자,4.3,132,https://place.map.kakao.com/1880682631,서울 서대문구 연세로11길 26 지하1층,,,연세대학교,37.558982,126.9353885
594,하루돈까스 신촌본점,"돈까스,우동",3.7,39,https://place.map.kakao.com/17505625,서울 서대문구 연세로7안길 16-3,,02-335-7047,연세대학교,37.5583203,126.935854
595,아만도,분식,3.1,3,https://place.map.kakao.com/15729081,서울 서대문구 연희로10길 73,,02-3143-0971,연세대학교,37.5640791,126.9331845
596,만냥하우스,"호프,요리주점",4.7,8,https://place.map.kakao.com/2074821554,서울 서대문구 성산로 402-1,,02-322-6692,연세대학교,37.5612501,126.9323205
597,혼네,일본식라면,3.9,35,https://place.map.kakao.com/758787891,서울 마포구 동교로46길 42-3 1층,,02-332-5247,연세대학교,37.56190309999999,126.9268205
598,꼬뜨,이탈리안,3.8,4,https://place.map.kakao.com/8213393,서울 서대문구 성산로 543,,02-365-0771,연세대학교,37.5648023,126.9452846
599,문,이탈리안,3.6,127,https://place.map.kakao.com/544262752,서울 마포구 동교로46길 21 2층,,070-7767-5097,연세대학교,37.5622835,126.925854
600,막걸리싸롱 신촌점,"호프,요리주점",3.3,25,https://place.map.kakao.com/26943790,서울 서대문구 연세로11길 10 지하,,02-324-0998,연세대학교,37.5590045,126.9362811
601,요이스시 신촌점,"초밥,롤",2.3,8,https://place.map.kakao.com/8022719,서울 서대문구 연세로11길 10 2~4층,,02-322-3455,연세대학교,37.5590045,126.9362811
602,웅네서서갈비,갈비,2.9,151,https://place.map.kakao.com/15548101,서울 서대문구 신촌역로 13-1,,02-365-6333,연세대학교,37.5579332,126.9425078
603,소문만족,"족발,보쌈",4.8,0,https://place.map.kakao.com/24878470,서울 서대문구 증가로 5,,02-333-6355,연세대학교,37.5688428,126.9316846
604,공간커피,카페,3.6,12,https://place.map.kakao.com/1969273713,서울 서대문구 연희로25길 68 1층,,02-6083-3101,연세대학교,37.5706551,126.9327183
605,연경,중화요리,2.3,18,https://place.map.kakao.com/870925093,서울 서대문구 연세로11길 25,,1588-2968,연세대학교,37.558753,126.9354709
606,꼬꼬아찌숯불치킨 신촌점,치킨,3.4,27,https://place.map.kakao.com/983739106,서울 서대문구 연세로9길 16 1층,,02-336-8743,연세대학교,37.5585925,126.9358569
607,미정,"호프,요리주점",3.8,56,https://place.map.kakao.com/1064327193,서울 서대문구 연희로11가길 53,,010-9631-4454,연세대학교,37.5662398,126.927425
608,스탬프커피,카페,2.4,432,https://place.map.kakao.com/1916943297,"서울 마포구 성미산로 161-7 1,2층",,,연세대학교,37.5650342,126.9237522
609,정리의밤,"호프,요리주점",4.9,17,https://place.map.kakao.com/767705440,서울 서대문구 연희맛로 31-10 상가 2호,,010-9469-3102,연세대학교,37.5681429,126.9304121
610,티원 연세대점,중화요리,3.8,30,https://place.map.kakao.com/8117386,서울 서대문구 연세로 50 연세대학교 동문회관 지하1층,,02-365-6564,연세대학교,37.5627329,126.9424748
611,라임,"초밥,롤",3.9,101,https://place.map.kakao.com/18479632,서울 서대문구 연세로4길 41 2층,,02-392-2506,연세대학교,37.5579831,126.9387279
612,신촌장미여관,"호프,요리주점",1.9,66,https://place.map.kakao.com/1588054844,서울 서대문구 연세로5가길 3 1층,,02-333-1722,연세대학교,37.5571726,126.9361725
613,상해소흘,중화요리,3.8,102,https://place.map.kakao.com/1882518839,서울 마포구 동교로 272 1층,,02-337-6188,연세대학교,37.563584,126.9259882
614,대구떡집,"떡,한과",4.0,4,https://place.map.kakao.com/15416453,서울 서대문구 연희로11길 26,,02-324-2913,연세대학교,37.56768539999999,126.9299387
615,파스타리코 신촌직영점,이탈리안,3.3,48,https://place.map.kakao.com/512430619,서울 서대문구 신촌역로 23,,02-313-6282,연세대학교,37.5586667,126.9424125
616,페잇퍼,만화카페,4.7,4,https://place.map.kakao.com/344946288,서울 서대문구 연희로15안길 32-7 1층,,,연세대학교,37.5701901,126.9304179
617,카츠미 신촌점,"돈까스,우동",3.1,16,https://place.map.kakao.com/1446486364,서울 서대문구 연세로7안길 2 2층,,02-336-3521,연세대학교,37.5577105,126.9364659
618,무유무유,테마카페,4.2,39,https://place.map.kakao.com/1705760385,서울 마포구 성미산로 190-4 102호,,,연세대학교,37.5628104,126.9260287
619,비아37,이탈리안,3.8,52,https://place.map.kakao.com/12394373,서울 서대문구 이화여대길 77-1,,02-365-0908,연세대학교,37.5589469,126.9441256
620,파파노다이닝,일식집,3.5,61,https://place.map.kakao.com/26907230,서울 서대문구 이화여대길 88-14,,02-364-0604,연세대학교,37.5593793,126.9441093
621,스타벅스 이대R점,커피전문점,3.7,69,https://place.map.kakao.com/725420477,서울 서대문구 이화여대길 34,,1522-3232,연세대학교,37.5583821,126.9459524
622,존재의이유,한식,4.3,4,https://place.map.kakao.com/13615180,서울 서대문구 성산로 553,,02-312-2991,연세대학교,37.5654665,126.9458005
623,불타는황소곱창 신촌점,"곱창,막창",4.4,21,https://place.map.kakao.com/17192182,서울 서대문구 연세로7안길 10-3,,,연세대학교,37.5582224,126.9361847
624,연대북문우리집,한식,5.0,2,https://place.map.kakao.com/24710109,서울 서대문구 연희로26길 23 101호,,02-333-2330,연세대학교,37.5609864,126.927275
625,문베어,카페,4.3,51,https://place.map.kakao.com/1349393694,서울 서대문구 명물길 66 1층,,02-393-9488,연세대학교,37.5588357,126.9398556
626,딸기골,분식,4.1,3,https://place.map.kakao.com/15871482,서울 서대문구 연대동문길 29,,02-363-5563,연세대학교,37.5638792,126.9438228
627,메종드시크릿 방탈출카페,테마카페,3.6,7,https://place.map.kakao.com/1196225717,서울 서대문구 연세로 30 창천빌딩 4층,,02-365-0711,연세대학교,37.5588406,126.9381403
628,더클루 신촌프리미엄점,테마카페,2.6,86,https://place.map.kakao.com/1969052262,서울 서대문구 명물길 62 오시리스타워 지하2층,,02-392-2225,연세대학교,37.5588684,126.9396402
629,스시미세기,"초밥,롤",4.0,22,https://place.map.kakao.com/25672434,서울 서대문구 성산로22길 4,,02-333-2146,연세대학교,37.5603743,126.9333177
630,곰미커피,디저트카페,4.1,30,https://place.map.kakao.com/1781476261,"서울 서대문구 신촌역로 11 1, 2층",,,연세대학교,37.5577083,126.9425438
631,섬,한식,4.3,57,https://place.map.kakao.com/1769346722,서울 마포구 동교로46길 42 2층,,070-4036-4642,연세대학교,37.5620585,126.926773
632,커피가게동경 연희점,커피전문점,2.4,22,https://place.map.kakao.com/1088457640,서울 서대문구 연희맛로 23,,,연세대학교,37.5671033,126.9296369
633,굽네치킨 서대문연희점,치킨,4.0,0,https://place.map.kakao.com/8195632,서울 서대문구 연희로 170 1층,,02-333-9492,연세대학교,37.5720898,126.9353423
634,요코쵸,일본식주점,3.8,143,https://place.map.kakao.com/27272826,서울 마포구 성미산로 161-15,,02-324-8875,연세대학교,37.5652905,126.9235006
635,본죽&비빔밥cafe 연희점,퓨전한식,3.6,3,https://place.map.kakao.com/18299379,서울 서대문구 연희맛로 18 1층,,02-324-8866,연세대학교,37.5666797,126.9298263
636,뉴오더클럽,피자,3.3,341,https://place.map.kakao.com/1629395786,서울 마포구 동교로34길 3,,,연세대학교,37.5610182,126.9245343
637,해즈밀,양식,2.8,110,https://place.map.kakao.com/525722197,서울 마포구 동교로46길 42-20,,02-6339-3839,연세대학교,37.5618428,126.9265361
638,유야케도쿄,"돈까스,우동",4.3,60,https://place.map.kakao.com/1459458596,서울 서대문구 이화여대3길 28 1층 101호,,,연세대학교,37.5580508,126.9440646
639,명랑핫도그 연희점,패스트푸드,3.6,8,https://place.map.kakao.com/886981259,서울 서대문구 증가로 13-9,,02-336-4959,연세대학교,37.5690889,126.9311004
640,신촌 칼,"호프,요리주점",4.2,45,https://place.map.kakao.com/27389671,서울 서대문구 연세로4길 42-3,,070-7626-1010,연세대학교,37.5578709,126.9390793
641,칠칠켄터키신촌점 (2021년 12월 예정),치킨,3.7,19,https://place.map.kakao.com/24228363,서울 서대문구 연세로9길 14,,02-336-1977,연세대학교,37.5586108,126.9359913
642,미스터서왕만두,분식,4.8,19,https://place.map.kakao.com/1210257268,서울 서대문구 명물길 59 1층,,02-313-8868,연세대학교,37.5591024,126.9393538
643,질리,이탈리안,4.5,75,https://place.map.kakao.com/1506305363,서울 마포구 동교로38길 23 지층,,02-6949-5651,연세대학교,37.5618026,126.9254772
644,티아레나,카페,4.8,12,https://place.map.kakao.com/292935948,서울 서대문구 연희맛로 43-2 2층,,010-5754-7576,연세대학교,37.5687481,126.9310781
645,맘스터치 연희동점,패스트푸드,4.3,1,https://place.map.kakao.com/1144016842,서울 서대문구 연희로 107-1 1층,,02-336-8489,연세대학교,37.5676388,126.9312649
646,나나하치,일본식주점,4.2,0,https://place.map.kakao.com/13605666,서울 서대문구 연희로 153 1층,,,연세대학교,37.5711324,126.934088
647,긴자료코 이대점,일식,4.1,32,https://place.map.kakao.com/1233587497,서울 서대문구 이화여대5길 28 1층,,02-309-5861,연세대학교,37.5583867,126.944052
648,예티 신촌점,인도음식,4.5,69,https://place.map.kakao.com/2041599663,서울 서대문구 연세로12길 23 2층,,02-312-1179,연세대학교,37.5590407,126.9383032
649,카페 코지,카페,4.3,39,https://place.map.kakao.com/686552236,서울 서대문구 이화여대길 88-19,,,연세대학교,37.5594525,126.9439362
650,나이스샤워 신촌점,일식,3.5,95,https://place.map.kakao.com/1385218243,서울 서대문구 연세로 35 2층,,02-6348-1020,연세대학교,37.5586875,126.9366988
651,설레임삼겹살1989,삼겹살,3.7,144,https://place.map.kakao.com/19400255,서울 서대문구 연세로5가길 31,,02-3144-1727,연세대학교,37.5571547,126.9348882
652,청담동포장마차,실내포장마차,4.3,58,https://place.map.kakao.com/8086719,서울 서대문구 연세로4길 25,,02-363-4377,연세대학교,37.5574533,126.9380315
653,배스킨라빈스 연희사러가점,아이스크림,3.0,2,https://place.map.kakao.com/17169040,서울 서대문구 연희맛로 23,,02-337-3231,연세대학교,37.5671033,126.9296369
654,드롭스 연희동본점,간식,5.0,2,https://place.map.kakao.com/749492172,서울 서대문구 연희로 117 1층,,010-8896-5402,연세대학교,37.5682728,126.9318184
655,다미칼국수,국수,3.0,4,https://place.map.kakao.com/8843082,서울 서대문구 성산로 537,,02-392-5342,연세대학교,37.5642881,126.944907
656,마라탕 이대6호점,중식,3.8,33,https://place.map.kakao.com/1899809952,서울 서대문구 신촌역로 23 2층,,,연세대학교,37.5586667,126.9424125
657,연남테라스,양식,2.7,139,https://place.map.kakao.com/1746571167,서울 마포구 동교로 266-7 3층,,,연세대학교,37.5630515,126.9257819
658,스타벅스 신촌명물거리점,커피전문점,3.7,15,https://place.map.kakao.com/12695523,서울 서대문구 명물길 24 1~5층,,1522-3232,연세대학교,37.5577614,126.9381244
659,포티드,카페,4.5,97,https://place.map.kakao.com/2020240735,서울 서대문구 명물길 36-3 1층,,070-7543-6627,연세대학교,37.558173,126.9388056
660,파리바게뜨 연희안산점,"제과,베이커리",5.0,3,https://place.map.kakao.com/12344270,서울 서대문구 연희로 198,,02-322-6222,연세대학교,37.5746296,126.9356129
661,세렌디피티,카페,4.9,77,https://place.map.kakao.com/1128015911,서울 서대문구 이화여대길 67 3층,,02-392-1766,연세대학교,37.5590502,126.9446946
662,코리아식당,한식,3.5,44,https://place.map.kakao.com/15742085,서울 마포구 연희로 35,,02-332-3595,연세대학교,37.5619063,126.9269777
663,커피그래피티,커피전문점,4.5,14,https://place.map.kakao.com/1829454938,서울 마포구 동교로 278,,,연세대학교,37.5639029,126.9264703
664,타코몽,일식,4.6,68,https://place.map.kakao.com/18730682,서울 서대문구 신촌로 49,,,연세대학교,37.5570013,126.9320688
665,파리바게뜨 연희점,"제과,베이커리",3.7,0,https://place.map.kakao.com/795928436,서울 서대문구 연희로 114 내풍빌딩 1층,,02-336-8204,연세대학교,37.5678116,126.9319184
666,던킨도너츠 연대동문회관점,도넛,4.8,0,https://place.map.kakao.com/10314334,서울 서대문구 연세로 50,,02-313-6238,연세대학교,37.564089,126.9389809
667,카페헐리우드 연세대점,이탈리안,4.5,2,https://place.map.kakao.com/24942792,서울 서대문구 성산로 551,,02-723-4888,연세대학교,37.565294,126.9456603
668,매운향솥 신촌점,중식,4.4,14,https://place.map.kakao.com/580642361,서울 서대문구 연세로11길 24,,02-336-7188,연세대학교,37.5589839,126.9355005
669,크래프트비어칸,"호프,요리주점",4.7,6,https://place.map.kakao.com/27461579,서울 서대문구 연희로11길 7 지하1층,,02-325-7903,연세대학교,37.5669492,126.9304371
670,데일리라운드,카페,3.9,92,https://place.map.kakao.com/23098139,서울 마포구 동교로38길 27-19 2층,,02-332-7880,연세대학교,37.5619094,126.9259341
671,연희동수제비,수제비,4.0,7,https://place.map.kakao.com/1568701795,서울 서대문구 연희로 89-3 1층,,02-3142-4959,연세대학교,37.5661476,126.9298724
672,크로키,양식,4.0,8,https://place.map.kakao.com/975646873,서울 서대문구 연희맛로 7-7 3층,,02-332-1845,연세대학교,37.56623889999999,126.928309
673,이노시시,일식집,3.3,31,https://place.map.kakao.com/11797723,서울 마포구 성미산로 197 1층,,070-4242-7307,연세대학교,37.5625532,126.9269719
674,다이닝야경,퓨전일식,4.4,73,https://place.map.kakao.com/637380041,서울 마포구 성미산로 189-6 1층 101호,,02-322-7779,연세대학교,37.5629965,126.9266689
675,백암순대국,순대,3.9,7,https://place.map.kakao.com/27306326,서울 서대문구 연세로11길 13 1층,,02-335-0285,연세대학교,37.5587903,126.9360126
676,베러댄와플 이대점,카페,4.3,25,https://place.map.kakao.com/1842640577,서울 서대문구 이화여대7길 35 1층,,070-4032-0176,연세대학교,37.5585654,126.9436737
677,192전집,"호프,요리주점",5.0,7,https://place.map.kakao.com/1078170275,서울 서대문구 연희맛로 5,,02-332-3664,연세대학교,37.5661202,126.9284364
678,본죽 연대대신동점,죽,4.1,0,https://place.map.kakao.com/16498643,서울 서대문구 연대동문길 71 이화빌딩 1층,,02-362-8684,연세대학교,37.5715889,126.9298074
679,연어상회 신촌점,"해물,생선",2.5,53,https://place.map.kakao.com/27222966,서울 서대문구 연세로12길 20 1층,,,연세대학교,37.5588498,126.938118
680,몽중식,중식,4.2,99,https://place.map.kakao.com/1748774897,서울 마포구 동교로 257 2층,영업시간 매일 11:30 ~ 21:30 · 브레이크타임 매일 15:30 ~ 17:00,,연세대학교,37.5627806,126.924629
681,교촌치킨 연희1호점,치킨,3.0,2,https://place.map.kakao.com/19032694,서울 서대문구 성산로 381,영업시간 매일 12:00 ~ 24:00,02-334-7999,연세대학교,37.5630836,126.9312089
682,돌아온김삿갓 신촌점,"호프,요리주점",4.1,15,https://place.map.kakao.com/13566959,서울 서대문구 연세로7안길 4,매일 14:00 ~ 04:00,02-323-7589,연세대학교,37.5578145,126.9364135
683,유원섬커피,카페,3.7,56,https://place.map.kakao.com/1701776676,서울 서대문구 연세로 42-24 2층,영업시간 월~토 12:00 ~ 22:00,,연세대학교,37.5592094,126.9384219
684,희로,일본식주점,4.3,24,https://place.map.kakao.com/134473495,서울 서대문구 성산로 325,"영업시간 월,화,목,금,토,일 17:00 ~ 24:00",,연세대학교,37.5664472,126.926444
685,신촌카우키,베트남음식,4.1,39,https://place.map.kakao.com/236525222,서울 서대문구 연세로9길 37 1층,,02-336-1426,연세대학교,37.5584935,126.934568
686,가마솥순대,순대,5.0,12,https://place.map.kakao.com/1359274821,서울 서대문구 연희로 185,영업시간 매일 10:00 ~ 22:00,02-332-5680,연세대학교,37.5735687,126.9352725
687,제주돈1848,"육류,고기",4.3,33,https://place.map.kakao.com/22651131,서울 서대문구 명물길 27-7,영업시간 매일 16:00 ~ 24:00,02-363-1848,연세대학교,37.5584075,126.9376308
688,이주방,일본식주점,4.2,58,https://place.map.kakao.com/1315942810,서울 마포구 연희로 33 2층,"월,수,목,금,토,일 17:00 ~ 02:00",02-336-3618,연세대학교,37.5618031,126.9269249
689,버거킹 연세로점,패스트푸드,1.9,8,https://place.map.kakao.com/21556767,서울 서대문구 연세로 25,매일 00:00 ~ 24:00,02-322-3669,연세대학교,37.5578925,126.9366716
690,고래파스타,이탈리안,4.2,41,https://place.map.kakao.com/593888079,서울 서대문구 연세로7안길 10-3 2층,영업시간 화~일 11:30 ~ 22:00 · 브레이크타임 화~일 15:00 ~ 17:00,02-336-6791,연세대학교,37.5582224,126.9361847
691,공룡부대찌개,"찌개,전골",3.8,5,https://place.map.kakao.com/18593797,서울 서대문구 연희로 81-15,영업시간 매일 11:00 ~ 23:00,02-322-5092,연세대학교,37.5657119,126.9291202
692,미도파커피하우스,카페,3.0,2,https://place.map.kakao.com/1650771621,서울 서대문구 성산로 317 2층,영업시간 매일 11:00 ~ 22:00,,연세대학교,37.5665374,126.9254703
693,남도미가,한식,3.9,3,https://place.map.kakao.com/1966413332,서울 서대문구 연희맛로 5,,02-336-6341,연세대학교,37.5661202,126.9284364
694,미네르바,카페,4.5,25,https://place.map.kakao.com/16418510,서울 서대문구 명물길 20-1 2층,,02-3147-1327,연세대학교,37.5576262,126.937917
695,광고호정닭한마리,닭요리,4.0,5,https://place.map.kakao.com/12665845,서울 동대문구 안암로18가길 32,,02-953-2624,고려대학교,37.5856059,127.0333241
696,고른햇살,분식,4.6,155,https://place.map.kakao.com/13086789,서울 성북구 개운사길 27,,02-953-3394,고려대학교,37.5874859,127.0290878
697,비나레스토랑,인도음식,4.7,45,https://place.map.kakao.com/19245690,서울 동대문구 안암로24길 4,,02-926-5860,고려대학교,37.588379,127.0352698
698,우정초밥,"초밥,롤",4.9,84,https://place.map.kakao.com/743447746,서울 성북구 종암로3길 31 1층,,070-4320-2333,고려대학교,37.5929438,127.0342868
699,백소정,"돈까스,우동",3.4,69,https://place.map.kakao.com/1306082197,서울 성북구 개운사길 30 2층,,,고려대학교,37.5876534,127.0294038
700,동우설렁탕 본점,설렁탕,4.1,34,https://place.map.kakao.com/21233686,서울 성북구 개운사길 45,,02-926-5243,고려대학교,37.588347,127.0290505
701,야마토텐동,일식,4.1,107,https://place.map.kakao.com/927297064,서울 성북구 고려대로28길 2 1층,,02-6326-1055,고려대학교,37.589116,127.0182146
702,이공김밥 안암본점,분식,4.3,149,https://place.map.kakao.com/60259859,서울 성북구 안암로 61-6,,02-926-0005,고려대학교,37.5823573,127.028449
703,오샬,인도음식,4.4,86,https://place.map.kakao.com/540993689,서울 성북구 고려대로24길 6 3층,,02-6084-6527,고려대학교,37.5859316,127.0291985
704,대즐링,카페,4.8,62,https://place.map.kakao.com/2047903591,서울 동대문구 안암로 132 1층,,0507-1409-3946,고려대학교,37.5868092,127.0334807
705,나정순할매쭈꾸미,"해물,생선",2.8,42,https://place.map.kakao.com/15774113,서울 동대문구 약령시로 65,,,고려대학교,37.582974,127.0370707
706,유자유김치떡볶이 본점,떡볶이,3.8,227,https://place.map.kakao.com/14512484,서울 성북구 고려대로24길 48 2층,,02-927-9200,고려대학교,37.58397170000001,127.029301
707,무르무르드구스토,이탈리안,3.3,84,https://place.map.kakao.com/26869744,서울 성북구 고려대로 102-2 4층,,02-928-0683,고려대학교,37.589116,127.0182146
708,스타벅스 종암DT점,커피전문점,2.8,10,https://place.map.kakao.com/1925239650,서울 성북구 종암로 17,,1522-3232,고려대학교,37.5919525,127.0360401
709,현고대닭발 본점,닭요리,4.2,44,https://place.map.kakao.com/8666853,서울 동대문구 제기로2길 42,,02-928-9995,고려대학교,37.5853247,127.0347442
710,디어브레드 고대점,"제과,베이커리",4.5,32,https://place.map.kakao.com/22590329,서울 성북구 개운사1길 29,,070-7661-4129,고려대학교,37.5872889,127.028694
711,미뇽,카페,4.5,50,https://place.map.kakao.com/858190180,서울 동대문구 제기로2길 4 2층,,070-4300-0425,고려대학교,37.586095,127.0329747
712,팔백집,갈비,3.6,67,https://place.map.kakao.com/2024769205,서울 성북구 고려대로27길 3,,02-921-5567,고려대학교,37.5920046,127.0174094
713,일곱평브런치,카페,3.5,12,https://place.map.kakao.com/1126853143,서울 동대문구 제기로5길 28 1층,,02-921-9979,고려대학교,37.5875935,127.035067
714,용초수,중화요리,4.1,30,https://place.map.kakao.com/21401923,서울 성북구 고려대로27길 20,,02-922-7991,고려대학교,37.5871834,127.0298899
715,카페파인,카페,3.6,25,https://place.map.kakao.com/1565634100,"서울 동대문구 안암로22길 15 형준빌딩 1, 2층",,,고려대학교,37.5879995,127.0356812
716,한상차림밥상,한식,3.3,106,https://place.map.kakao.com/2108354197,서울 성북구 고려대로8길 35,,010-9073-4141,고려대학교,37.5917087,127.0054531
717,어흥식당 안암1호점,"스테이크,립",4.2,25,https://place.map.kakao.com/1047320817,서울 성북구 고려대로27길 40 1층,,,고려대학교,37.5880787,127.0298466
718,와플앨리,"제과,베이커리",4.4,36,https://place.map.kakao.com/1665313840,서울 성북구 고려대로28길 21,,02-928-3115,고려대학교,37.589116,127.0182146
719,쿠이도라쿠,일본식라면,2.9,27,https://place.map.kakao.com/16621049,서울 성북구 안암로 103,,02-929-9290,고려대학교,37.5849728,127.0312762
720,삼성통닭 본점,치킨,3.6,27,https://place.map.kakao.com/946837172,서울 성북구 고려대로24길 60,,02-922-0077,고려대학교,37.5834169,127.0293206
721,팔백집,갈비,3.6,276,https://place.map.kakao.com/335111559,서울 성북구 보문로30길 46,,02-928-0032,고려대학교,37.5894509,127.0198045
722,고래돈가스 고대점,"돈까스,우동",4.1,26,https://place.map.kakao.com/24529027,서울 동대문구 안암로 154,,02-953-6592,고려대학교,37.5883631,127.0350877
723,이세돈가스 고려대점,"돈까스,우동",4.3,28,https://place.map.kakao.com/395796193,서울 성북구 개운사길 32 1층,,02-927-7749,고려대학교,37.5877499,127.029424
724,근처식당,동남아음식,3.6,77,https://place.map.kakao.com/1252013552,서울 성북구 회기로3길 2,,010-7470-4393,고려대학교,37.591434,127.0375278
725,매스플레이트 안암본점,이탈리안,3.9,24,https://place.map.kakao.com/24073778,서울 성북구 개운사길 18,,,고려대학교,37.5870906,127.0294484
726,홍능갈비집 본점,갈비,3.3,21,https://place.map.kakao.com/8622755,서울 동대문구 제기로 85,,02-965-0420,고려대학교,37.5868877,127.0424438
727,프로마치,양식,4.4,25,https://place.map.kakao.com/26394949,서울 성북구 고려대로24가길 13 1층,,070-4038-8537,고려대학교,37.5853609,127.0301412
728,문화식당,퓨전요리,4.4,155,https://place.map.kakao.com/23960060,서울 성북구 보문로30나길 37 지하1층,,02-6381-4644,고려대학교,37.5910372,127.0202944
729,베나레스,인도음식,3.6,42,https://place.map.kakao.com/12075400,서울 성북구 고려대로24길 27 2층,,02-921-9982,고려대학교,37.5848711,127.0295316
730,영철버거 본점,햄버거,4.8,20,https://place.map.kakao.com/8005815,서울 성북구 안암로9가길 100 1층,,02-922-1668,고려대학교,37.5831459,127.0287977
731,제주고깃집 안암점,"육류,고기",4.5,86,https://place.map.kakao.com/24923695,서울 성북구 안암로 69-1,,02-926-3696,고려대학교,37.5826156,127.028851
732,토로생선구이,"해물,생선",4.8,18,https://place.map.kakao.com/1523499015,서울 성북구 고려대로28길 14,,02-923-3539,고려대학교,37.5953071,126.9938277
733,키라쿠,카페,3.9,109,https://place.map.kakao.com/789579036,서울 동대문구 약령시로 5-1 아이리스빌딩 1층,,,고려대학교,37.5827554,127.0302882
734,중국관,중화요리,4.7,14,https://place.map.kakao.com/340735999,서울 동대문구 고산자로56길 17 1층,,02-962-3514,고려대학교,37.5884503,127.0379354
735,소문난 보배곱창,"곱창,막창",4.8,13,https://place.map.kakao.com/16586999,서울 동대문구 고산자로 539-1,,02-963-7323,고려대학교,37.58756839999999,127.0374044
736,형제집,한식,4.4,33,https://place.map.kakao.com/16529587,서울 동대문구 제기로6길 14-2,,02-921-3626,고려대학교,37.5859344,127.0342585
737,달콤퐁당 고대점,디저트카페,4.4,21,https://place.map.kakao.com/424982024,서울 동대문구 안암로24길 8,,02-919-8268,고려대학교,37.5883381,127.0354413
738,식빵이맛있는집 네모 고대직영점,"제과,베이커리",2.4,61,https://place.map.kakao.com/1786695359,서울 성북구 고려대로 96,,02-3272-8400,고려대학교,37.589116,127.0182146
739,맥도날드 종암SK점,패스트푸드,2.6,7,https://place.map.kakao.com/7860480,서울 성북구 종암로 58,,070-7017-0661,고려대학교,37.5956106,127.0360234
740,장위동유성집 고대점,"육류,고기",3.1,12,https://place.map.kakao.com/14747096,서울 성북구 안암로 117,,02-922-5443,고려대학교,37.5860053,127.0321358
741,백소정 고대역점,"돈까스,우동",2.5,22,https://place.map.kakao.com/616431962,서울 동대문구 안암로 144 1층,,02-922-2021,고려대학교,37.5875603,127.0343145
742,스타벅스 고대점,커피전문점,3.2,9,https://place.map.kakao.com/7961278,서울 성북구 고려대로24길 51 1층 & 2층,,1522-3232,고려대학교,37.5838912,127.0296926
743,제주고깃집 안암점,"육류,고기",4.5,86,https://place.map.kakao.com/24923695,서울 성북구 안암로 69-1,영업시간 매일 17:00 ~ 24:00,02-926-3696,고려대학교,37.5826156,127.028851
744,소문난 보배곱창,"곱창,막창",4.8,13,https://place.map.kakao.com/16586999,서울 동대문구 고산자로 539-1,영업시간 매일 16:00 ~ 24:00,02-963-7323,고려대학교,37.58756839999999,127.0374044
745,형제집,한식,4.4,33,https://place.map.kakao.com/16529587,서울 동대문구 제기로6길 14-2,매일 15:00 ~ 02:00,02-921-3626,고려대학교,37.5859344,127.0342585
746,달콤퐁당 고대점,디저트카페,4.4,21,https://place.map.kakao.com/424982024,서울 동대문구 안암로24길 8,영업시간 월~토 11:00 ~ 20:00,02-919-8268,고려대학교,37.5883381,127.0354413
747,오소리순대 본점,순대,2.8,6,https://place.map.kakao.com/8010882,서울 동대문구 회기로4길 16,영업시간 매일 10:30 ~ 22:00,02-918-9797,고려대학교,37.5905137,127.037157
748,맥도날드 종암SK점,패스트푸드,2.6,7,https://place.map.kakao.com/7860480,서울 성북구 종암로 58,매일 00:00 ~ 24:00,070-7017-0661,고려대학교,37.5956106,127.0360234
749,장위동유성집 고대점,"육류,고기",3.1,12,https://place.map.kakao.com/14747096,서울 성북구 안암로 117,영업시간 매일 11:00 ~ 23:00,02-922-5443,고려대학교,37.5860053,127.0321358
750,KFC 고대안암점,패스트푸드,3.0,4,https://place.map.kakao.com/1907025237,서울 성북구 개운사길 5 세한빌딩 1층,,02-923-8162,고려대학교,37.5866187,127.0291511
751,홍도야빈대떡,한식,3.6,11,https://place.map.kakao.com/16472986,서울 동대문구 제기로 11-1,,02-953-1092,고려대학교,37.586617,127.0343244
752,라라면가,중식,4.2,126,https://place.map.kakao.com/697084504,서울 성북구 동소문로22길 57-25,,02-921-4851,고려대학교,37.5908868,127.0196566
753,오박사네돈까스전문점 고대점,"돈까스,우동",3.2,11,https://place.map.kakao.com/16902781,서울 성북구 북악산로 1055,,02-922-9759,고려대학교,37.59249519999999,127.0351895
754,최고당돈가스 성신여대점,"돈까스,우동",4.2,98,https://place.map.kakao.com/1393612884,서울 성북구 보문로34길 77 1층,,02-921-8822,고려대학교,37.5913637,127.0194714
755,밀플랜비 서울고려대점,"멕시칸,브라질",4.2,9,https://place.map.kakao.com/688315439,서울 성북구 개운사길 52 1층,,070-4191-0502,고려대학교,37.5886262,127.0293685
756,마이셰프,이탈리안,4.0,12,https://place.map.kakao.com/848466596,서울 성북구 고려대로24가길 14-1,,070-7799-6768,고려대학교,37.59548849999999,126.995662
757,코케코코,"돈까스,우동",4.1,13,https://place.map.kakao.com/15608382,서울 동대문구 안암로24길 5 1층,,,고려대학교,37.5885264,127.0354388
758,감초식당,한식,2.9,88,https://place.map.kakao.com/21232071,서울 동대문구 약령서길 28,,02-962-4570,고려대학교,37.5795271,127.0362433
759,비나레스토랑 2호점,인도음식,5.0,16,https://place.map.kakao.com/27174790,서울 성북구 고려대로24길 3-42 2층,,02-928-5860,고려대학교,37.5859201,127.0296697
760,동해자연산회센타 해적수산,회,4.3,0,https://place.map.kakao.com/12247089,서울 동대문구 제기로 3-1,,02-953-9098,고려대학교,37.5865586,127.0334726
761,큰대문집,갈비,4.0,9,https://place.map.kakao.com/9546282,서울 성북구 종암로14길 6-21,영업시간 매일 11:30 ~ 21:30,02-913-0902,고려대학교,37.5962746,127.0361281
762,크치치킨 고려대본점,치킨,3.8,9,https://place.map.kakao.com/641407772,서울 동대문구 고산자로56길 7,월~토 14:00 ~ 00:30,02-957-9285,고려대학교,37.5880886,127.0377691
763,백미향 고려대점,중식,4.5,10,https://place.map.kakao.com/1134371524,서울 동대문구 안암로 140 KEBY타워 1층,,,고려대학교,37.587433,127.0341803
764,미각 고대본점,양꼬치,2.4,18,https://place.map.kakao.com/27380875,서울 성북구 고려대로24길 44,매일 00:00 ~ 24:00,02-927-8858,고려대학교,37.58416740000001,127.0293075
765,동선식당,갈비,4.6,129,https://place.map.kakao.com/399918679,서울 성북구 보문로30라길 9 1층,영업시간 매일 11:00 ~ 23:00,02-953-6632,고려대학교,37.5897991,127.0190968
766,연어사랑 고대점,"해물,생선",4.7,8,https://place.map.kakao.com/27232932,서울 동대문구 안암로22길 16 1층,영업시간 매일 11:00 ~ 22:00,02-928-8243,고려대학교,37.5879367,127.035494
767,카페 헤이피,커피전문점,4.5,38,https://place.map.kakao.com/1674338464,서울 동대문구 제기로2길 11 2층,영업시간 화~토 12:00 ~ 22:00,070-8733-3946,고려대학교,37.5858834,127.0333228
768,평범식당,"찌개,전골",3.6,16,https://place.map.kakao.com/322033066,서울 동대문구 제기로5길 35,영업시간 월~토 11:00 ~ 20:00,070-7817-9976,고려대학교,37.5879422,127.0351848
769,충주집,닭요리,4.8,8,https://place.map.kakao.com/8094273,서울 동대문구 제기로6길 5 1층,매일 15:00 ~ 05:00,02-923-1068,고려대학교,37.5861657,127.0345624
770,설빙 서울고대점,디저트카페,3.8,9,https://place.map.kakao.com/24483772,서울 성북구 고려대로24길 14 2층,영업시간 매일 10:30 ~ 22:30,070-8231-5157,고려대학교,37.5856144,127.0291925
771,두부촌,두부전문점,3.3,20,https://place.map.kakao.com/26974065,서울 성북구 안암로 43,영업시간 매일 11:00 ~ 22:00,02-922-1783,고려대학교,37.5811654,127.0268217
772,어머니대성집,해장국,3.4,220,https://place.map.kakao.com/907979960,서울 동대문구 왕산로11길 4,영업시간 화~토 05:00 ~ 22:00,02-923-1718,고려대학교,37.5774367,127.0285492
773,교촌치킨 안암점,치킨,3.2,3,https://place.map.kakao.com/10139496,서울 동대문구 안암로 122,영업시간 매일 12:00 ~ 24:00,02-923-3363,고려대학교,37.5860645,127.0327623
774,특별식당,일식,4.9,17,https://place.map.kakao.com/2040703324,서울 동대문구 제기로2길 15 1층,영업시간 매일 11:30 ~ 24:00 · 브레이크타임 매일 14:00 ~ 17:00,,고려대학교,37.5857415,127.0333688
775,카페루틴,카페,4.0,113,https://place.map.kakao.com/293334422,서울 성북구 보문로34가길 6 1층,,,고려대학교,37.5916709,127.0201106
776,아바이토종순대국 안암오거리점,순대,3.4,5,https://place.map.kakao.com/1831736172,서울 성북구 안암로9가길 80-17 1층,,02-928-3646,고려대학교,37.5827683,127.0286792
777,강다짐삼각김밥 고대점,분식,3.3,4,https://place.map.kakao.com/1523398613,서울 성북구 고려대로24길 23,,02-929-0498,고려대학교,37.589116,127.0182146
778,뚝닭,닭요리,4.6,17,https://place.map.kakao.com/2054623085,서울 동대문구 제기로5길 31 크림슨하우스 1층,,02-927-1900,고려대학교,37.5878503,127.0349641
779,한잔의 추억,"호프,요리주점",4.6,15,https://place.map.kakao.com/15997089,서울 성북구 고려대로26길 30,,02-3291-4848,고려대학교,37.5849151,127.029839
780,할머니냉면,냉면,3.5,174,https://place.map.kakao.com/10926416,서울 동대문구 왕산로37길 51,,02-963-5362,고려대학교,37.5822259,127.043698
781,탕화쿵푸마라탕 고려대점,중식,5.0,8,https://place.map.kakao.com/962124402,서울 성북구 고려대로27길 24-2 2층,,010-8792-5198,고려대학교,37.5873167,127.0298837
782,양자설렁탕,설렁탕,3.0,6,https://place.map.kakao.com/21327509,서울 성북구 종암로 25,,02-953-3234,고려대학교,37.6007609,127.0316233
783,역시커피,디저트카페,4.4,18,https://place.map.kakao.com/1261420085,서울 동대문구 회기로 28,,,고려대학교,37.5893054,127.0562544
784,금복식당,한식,5.0,9,https://place.map.kakao.com/21232037,서울 동대문구 안암로20길 16,,02-923-7844,고려대학교,37.5873227,127.0350049
785,태조감자국,감자탕,3.6,159,https://place.map.kakao.com/1755515956,서울 성북구 보문로34길 43 세학빌딩 1층,,02-921-7667,고려대학교,37.5907826,127.017715
786,나정순할매쭈꾸미,"해물,생선",4.1,468,https://place.map.kakao.com/27175293,서울 동대문구 무학로 144,,02-928-0231,고려대학교,37.5770555,127.0307346
787,신룽푸마라탕 고대점,중화요리,1.8,11,https://place.map.kakao.com/587518847,서울 성북구 고려대로24길 35 2층,,02-6404-2014,고려대학교,37.5846252,127.029545
788,만복식당,한식,4.8,13,https://place.map.kakao.com/1598858982,서울 성북구 개운사길 34,,02-922-2300,고려대학교,37.5878599,127.0294339
789,투썸플레이스 고려대법학관점,커피전문점,3.0,1,https://place.map.kakao.com/18410992,서울 성북구 안암로 145,,02-927-2379,고려대학교,37.5900117,127.0318586
790,투고샐러드 고려대점,양식,4.3,12,https://place.map.kakao.com/730606174,서울 성북구 고려대로28길 5,,02-953-6070,고려대학교,37.5960545,126.9926299
791,언제나만족 본점,"족발,보쌈",4.6,6,https://place.map.kakao.com/610932305,서울 동대문구 회기로 40,,02-963-4556,고려대학교,37.5910689,127.0408265
792,동대문엽기떡볶이 고려대점,떡볶이,1.3,5,https://place.map.kakao.com/15637404,서울 동대문구 안암로 138 1층,,02-922-8592,고려대학교,37.5872479,127.0339053
793,자스민,중화요리,3.0,7,https://place.map.kakao.com/12250954,서울 성북구 종암로5길 36,,02-929-8955,고려대학교,37.5943878,127.0339239
794,이수영피자 본점,피자,4.5,14,https://place.map.kakao.com/19133071,서울 동대문구 안암로24길 5,,02-911-2001,고려대학교,37.5885264,127.0354388
795,무아국수집,국수,3.5,10,https://place.map.kakao.com/15885047,서울 성북구 개운사길 18,,02-927-7050,고려대학교,37.5870906,127.0294484
